,access_code,access_days_time,access_detail_code,cards_accepted,date_last_confirmed,expected_date,fuel_type_code,groups_with_access_code,id,open_date,owner_type_code,status_code,restricted_access,station_name,station_phone,updated_at,facility_type,geocode_status,latitude,longitude,city,intersection_directions,plus4,state,street_address,zip,country,bd_blends,cng_dispenser_num,cng_fill_type_code,cng_psi,cng_renewable_source,cng_total_compression,cng_total_storage,cng_vehicle_class,cng_has_rng,e85_blender_pump,e85_other_ethanol_blends,ev_connector_types,ev_dc_fast_num,ev_level1_evse_num,ev_level2_evse_num,ev_network,ev_network_web,ev_other_evse,ev_pricing,ev_renewable_source,hy_is_retail,hy_pressures,hy_standards,hy_status_link,lng_renewable_source,lng_vehicle_class,lng_has_rng,lpg_primary,lpg_nozzle_types,ng_fill_type_code,ng_psi,ng_vehicle_class,rd_blends,rd_blends_fr,rd_blended_with_biodiesel,rd_max_biodiesel_level,nps_unit_name,access_days_time_fr,intersection_directions_fr,bd_blends_fr,groups_with_access_code_fr,ev_pricing_fr,ev_network_ids
0,public,24 hours daily,,,2022-01-10,2022-11-17,ELEC,TEMPORARILY UNAVAILABLE (Public),64776,2014-09-01,T,T,False,Extra Space Storage,323-661-8122,2023-05-02T16:17:33Z,STORAGE,GPS,34.110475,-118.246578,Los Angeles,,,CA,2904 Casitas Ave,90039,US,,,,,,,,,,,,['J1772'],,,1,Non-Networked,,,Free,,,,,,,,,,,,,,,,,,,,,,TEMPORAIREMENT SUSPENDU (Public),,
1,public,24 hours daily,,,2023-05-14,,ELEC,Public,99239,2018-06-14,,E,,Silverlake Library,855-900-7584,2023-05-14T00:39:06Z,,200-9,34.10036,-118.259602,Los Angeles,,,CA,2411 Glendale Ave,90039,US,,,,,,,,,,,,['J1772'],,,6,SHELL_RECHARGE,https://shellrecharge.com/en-us/solutions,,,,,,,,,,,,,,,,,,,,,,,,Public,,"{'station': ['831'], 'posts': ['122489', '122490', '122492', '122494', '122625', '182764']}"
2,private,,,,2020-04-08,,ELEC,Private,123219,2019-04-01,P,E,,Baxter Credit Union,,2021-03-11T23:22:17Z,BANK,GPS,34.142464,-118.2704776,Los Angeles,,,CA,4501 Colorado Blvd,90039,US,,,,,,,,,,,,['J1772'],,,5,EV Connect,http://evconnect.com/,,,,,,,,,,,,,,,,,,,,,,,,Privé,,
3,private,Fleet use only,,,2023-01-10,,ELEC,Private,152155,2019-03-01,LG,E,,LADWP - Receiving Station G,,2023-02-15T22:45:41Z,UTILITY,200-9,34.109854,-118.252525,Los Angeles,,,CA,2625 Fletcher Dr,90039,US,,,,,,,,,,,,"['CHADEMO', 'J1772', 'J1772COMBO']",2.0,,16,Non-Networked,,,,,,,,,,,,,,,,,,,,,,,,,Privé,,
4,public,24 hours daily,,,2023-05-14,,ELEC,Public,153702,2020-02-13,,E,,4206 E CHEVY CHASE DR,855-900-7584,2023-05-14T00:38:13Z,,GPS,34.133361,-118.265977,Los Angeles,,,CA,4206 E CHEVY CHASE DR,90039,US,,,,,,,,,,,,['J1772'],,,1,SHELL_RECHARGE,https://shellrecharge.com/en-us/solutions,,,,,,,,,,,,,,,,,,,,,,,,Public,,"{'station': ['1791'], 'posts': ['12265A']}"
5,private,,,,2023-01-10,,ELEC,Private,191210,2021-01-15,T,E,,LADWP - Ripple St Yard,,2023-02-15T22:45:41Z,UTILITY,200-8,34.106894,-118.252569,Los Angeles,,,CA,2333 Ripple St,90039,US,,,,,,,,,,,,"['CHADEMO', 'J1772', 'J1772COMBO']",1.0,,4,SHELL_RECHARGE,https://shellrecharge.com/en-us/solutions,,,,,,,,,,,,,,,,,,,,,,,,Privé,,
6,public,24 hours daily,,,2023-05-14,,ELEC,Public,216620,2022-05-06,,E,,4660 Colorado Blvd,888-356-8911,2023-05-14T01:04:02Z,,GPS,34.14061687,-118.2742956,Los Angeles,,,CA,4660 Colorado Blvd,90039,US,,,,,,,,,,,,['J1772'],,,1,FLO,https://flo.ca/,,,,,,,,,,,,,,,,,,,,,,,,Public,,{'posts': ['AUI-10451']}
7,public,,,,2023-05-14,,ELEC,Public,230805,2022-09-30,,E,,Takeda Los Angeles - Roof,866-816-7584,2023-05-14T01:24:33Z,,GPS,34.142464,-118.270478,Los Angeles,,,CA,4501 Colorado Blvd,90039,US,,,,,,,,,,,,['J1772'],,,8,EV Connect,http://evconnect.com/,,,,,,,,,,,,,,,,,,,,,,,,Public,,"{'station': ['37d8efd4-00e7-4642-a1e9-4a439a076409'], 'posts': ['63340368769d34776391efd2', '63340368769d34776391efd3', '63340368769d34776391efe2', '63340368769d34776391efe3', '63340368769d34776391f268', '63340368769d34776391f269', '6334036a769d34776391f60d', '6334036a769d34776391f60e']}"
8,public,24 hours daily,,,2023-05-14,,ELEC,Public,260811,2023-05-13,,E,,2221 W Duane St,888-356-8911,2023-05-14T01:04:02Z,,GPS,34.09035936,-118.2602591,Los Angeles,,,CA,2221 W Duane St,90039,US,,,,,,,,,,,,['J1772'],,,1,FLO,https://flo.ca/,,,,,,,,,,,,,,,,,,,,,,,,Public,,{'posts': ['AUI-10730']}
