,access_code,access_days_time,access_detail_code,cards_accepted,date_last_confirmed,expected_date,fuel_type_code,groups_with_access_code,id,open_date,owner_type_code,status_code,restricted_access,station_name,station_phone,updated_at,facility_type,geocode_status,latitude,longitude,city,intersection_directions,plus4,state,street_address,zip,country,bd_blends,cng_dispenser_num,cng_fill_type_code,cng_psi,cng_renewable_source,cng_total_compression,cng_total_storage,cng_vehicle_class,cng_has_rng,e85_blender_pump,e85_other_ethanol_blends,ev_connector_types,ev_dc_fast_num,ev_level1_evse_num,ev_level2_evse_num,ev_network,ev_network_web,ev_other_evse,ev_pricing,ev_renewable_source,hy_is_retail,hy_pressures,hy_standards,hy_status_link,lng_renewable_source,lng_vehicle_class,lng_has_rng,lpg_primary,lpg_nozzle_types,ng_fill_type_code,ng_psi,ng_vehicle_class,rd_blends,rd_blends_fr,rd_blended_with_biodiesel,rd_max_biodiesel_level,nps_unit_name,access_days_time_fr,intersection_directions_fr,bd_blends_fr,groups_with_access_code_fr,ev_pricing_fr,ev_network_ids
0,public,24 hours daily,,,2023-05-14,2022-10-31,ELEC,TEMPORARILY UNAVAILABLE (Public),143117,2019-08-14,,T,,2061 W 8TH ST,855-900-7584,2023-05-14T00:38:14Z,,GPS,34.054745,-118.277327,Los Angeles,,,CA,2061 W 8TH ST,90057,US,,,,,,,,,,,,['J1772'],,,1,SHELL_RECHARGE,https://shellrecharge.com/en-us/solutions,,,,,,,,,,,,,,,,,,,,,,,,TEMPORAIREMENT SUSPENDU (Public),,"{'station': ['1813'], 'posts': ['12291A']}"
1,public,24 hours daily,,,2023-05-14,,ELEC,Public,154283,2020-03-04,,E,,256 S Lafayette Park Pl,888-356-8911,2023-05-14T01:04:02Z,,GPS,34.06773974,-118.2799697,Los Angeles,,,CA,256 S Lafayette Park Pl,90057,US,,,,,,,,,,,,['J1772'],,,1,FLO,https://flo.ca/,,,,,,,,,,,,,,,,,,,,,,,,Public,,{'posts': ['AUI-10301']}
2,public,24 hours daily,,,2023-05-14,,ELEC,Public,154286,2020-03-04,,E,,3215 Beverly Blvd,888-356-8911,2023-05-14T01:04:02Z,,GPS,34.07240918,-118.283741,Los Angeles,,,CA,3215 Beverly Blvd,90057,US,,,,,,,,,,,,['J1772'],,,1,FLO,https://flo.ca/,,,,,,,,,,,,,,,,,,,,,,,,Public,,{'posts': ['AUI-10300']}
3,public,24 hours daily,,,2023-05-14,,ELEC,Public,154395,2020-03-10,,E,,3211 Beverly Blvd,888-356-8911,2023-05-14T01:04:02Z,,GPS,34.07244477,-118.2834075,Los Angeles,,,CA,3211 Beverly Blvd,90057,US,,,,,,,,,,,,['J1772'],,,1,FLO,https://flo.ca/,,,,,,,,,,,,,,,,,,,,,,,,Public,,{'posts': ['AUI-10305']}
4,public,24 hours daily,,,2023-05-14,,ELEC,Public,163591,2020-06-24,,E,,676 S Rampart Blvd,855-900-7584,2023-05-14T00:38:24Z,,GPS,34.059976,-118.282862,Los Angeles,,,CA,676 S Rampart Blvd,90057,US,,,,,,,,,,,,['J1772'],,,1,SHELL_RECHARGE,https://shellrecharge.com/en-us/solutions,,,,,,,,,,,,,,,,,,,,,,,,Public,,"{'station': ['2457'], 'posts': ['12513A']}"
5,public,24 hours daily,,,2023-05-14,,ELEC,Public,163680,2020-06-27,,E,,320 S Alvarado St,888-356-8911,2023-05-14T01:04:02Z,,GPS,34.06241,-118.2731616,Los Angeles,,,CA,320 S Alvarado St,90057,US,,,,,,,,,,,,['J1772'],,,1,FLO,https://flo.ca/,,,,,,,,,,,,,,,,,,,,,,,,Public,,{'posts': ['AUI-10205']}
6,public,24 hours daily,,,2023-05-14,,ELEC,Public,225693,2022-08-18,,E,,2416 W 6th St,888-356-8911,2023-05-14T01:04:02Z,,GPS,34.06135067,-118.2791268,Los Angeles,,,CA,2416 W 6th St,90057,US,,,,,,,,,,,,['J1772'],,,1,FLO,https://flo.ca/,,,,,,,,,,,,,,,,,,,,,,,,Public,,{'posts': ['AUI-10600']}
7,public,,,,2023-05-13,,ELEC,Public,257423,2023-03-30,,E,,Grand View & 3rd,888-998-2546,2023-05-13T23:58:31Z,,GPS,34.063612,-118.274935,Los Angeles,,,CA,301 S Grand View Street,90057,US,,,,,,,,,,,,['J1772'],,,5,Blink Network,http://www.blinkcharging.com/,,,,,,,,,,,,,,,,,,,,,,,,Public,,"{'station': ['465ba1dd-d734-8158-93cc-330000536853'], 'posts': ['3759df64-ace4-4789-b503-72dba7698f14', '449609be-690d-464b-a9f2-2edfeca84b60', '8d3bfc8b-b733-4642-b2f4-7769d94b6b63', 'affb157f-5ca0-43c4-82a7-187ec09c3f08', 'eeac1343-1295-4a1e-a820-d21f69f05a81']}"
