,access_code,access_days_time,access_detail_code,cards_accepted,date_last_confirmed,expected_date,fuel_type_code,groups_with_access_code,id,open_date,owner_type_code,status_code,restricted_access,station_name,station_phone,updated_at,facility_type,geocode_status,latitude,longitude,city,intersection_directions,plus4,state,street_address,zip,country,bd_blends,cng_dispenser_num,cng_fill_type_code,cng_psi,cng_renewable_source,cng_total_compression,cng_total_storage,cng_vehicle_class,cng_has_rng,e85_blender_pump,e85_other_ethanol_blends,ev_connector_types,ev_dc_fast_num,ev_level1_evse_num,ev_level2_evse_num,ev_network,ev_network_web,ev_other_evse,ev_pricing,ev_renewable_source,hy_is_retail,hy_pressures,hy_standards,hy_status_link,lng_renewable_source,lng_vehicle_class,lng_has_rng,lpg_primary,lpg_nozzle_types,ng_fill_type_code,ng_psi,ng_vehicle_class,rd_blends,rd_blends_fr,rd_blended_with_biodiesel,rd_max_biodiesel_level,nps_unit_name,access_days_time_fr,intersection_directions_fr,bd_blends_fr,groups_with_access_code_fr,ev_pricing_fr,ev_network_ids
0,public,Dealership business hours,CALL,,2020-06-09,,ELEC,Public - Call ahead,39896,2011-03-15,P,E,False,Gardena Nissan,310-532-1600,2023-02-15T22:45:41Z,CAR_DEALER,200-8,33.889201,-118.307028,Gardena,,,CA,1670 W Redondo Beach Blvd,90247,US,,,,,,,,,,,,['J1772'],,,1.0,Non-Networked,,,Free,,,,,,,,,,,,,,,,,,,,,,Public - Appeler à l'avance,,
1,private,,,,2020-06-09,,ELEC,Private,48186,2011-03-15,P,E,,Gardena Nissan,310-532-1600,2023-02-15T22:45:41Z,CAR_DEALER,200-8,33.889201,-118.307028,Gardena,,,CA,1670 W Redondo Beach Blvd,90247,US,,,,,,,,,,,,['J1772'],,,1.0,Non-Networked,,,,,,,,,,,,,,,,,,,,,,,,,Privé,,
2,private,,,,2022-06-14,,ELEC,Private,74642,2016-03-01,P,E,,United Parcel Service,,2023-05-05T16:02:48Z,FLEET_GARAGE,200-9,33.875663,-118.309806,Gardena,,,CA,17115 S Western Ave,90247,US,,,,,,,,,,,,['J1772'],,,10.0,Non-Networked,,,,,,,,,,,,,,,,,,,,,,,,,Privé,,
3,public,24 hours daily,,,2023-05-14,,ELEC,Public,160774,2020-06-12,,E,,EVSP WALGREENS STORE 7175,888-758-4389,2023-05-14T00:04:51Z,,GPS,33.891236,-118.299452,Gardena,,,CA,1344 W Redondo Beach Blvd,90247,US,,,,,,,,,,,,['J1772'],,,1.0,ChargePoint Network,http://www.chargepoint.com/,,,,,,,,,,,,,,,,,,,,,,,,Public,,"{'station': ['USCPIL118305'], 'posts': ['13487051']}"
4,private,24 hours daily,,A D M V,2020-10-09,,ELEC,Private,166338,2020-05-01,LG,E,,Environmental Charter Middle School,,2021-03-11T23:22:17Z,SCHOOL,200-9,33.880459,-118.289875,Gardena,,,CA,812 W 165th Pl,90247,US,,,,,,,,,,,,['J1772'],,,2.0,EV Connect,http://evconnect.com/,,,,,,,,,,,,,,,,,,,,,,,,Privé,,
5,public,24 hours daily,,,2023-05-14,,ELEC,Public,170201,2020-12-16,,E,,"Target T0290 - Gardena, CA",833-632-2778,2023-05-14T00:40:53Z,,GPS,33.88727,-118.31617,Gardena,,,CA,2169 W. Redondo Beach Blvd.,90247,US,,,,,,,,,,,,"['CHADEMO', 'J1772', 'J1772COMBO']",3.0,,1.0,Electrify America,https://www.electrifyamerica.com/,,,,,,,,,,,,,,,,,,,,,,,,Public,,"{'station': ['200042'], 'posts': ['200042-01', '200042-02', '200042-03', '200042-50']}"
6,public,24 hours daily,,,2023-05-13,,ELEC,Public,228796,2021-08-27,,E,,Gardena Plaza,877-455-3833,2023-05-13T23:56:34Z,,GPS,33.89042,-118.2998,Gardena,,,CA,1420 W Redondo Beach Blvd,90247,US,,,,,,,,,,,,"['CHADEMO', 'J1772COMBO']",4.0,,,eVgo Network,https://www.evgo.com/,,,,,,,,,,,,,,,,,,,,,,,,Public,,"{'station': ['34742'], 'posts': ['71182', '71184', '71186', '71188']}"
