,id,station_name,open_date,status_code,fuel_type_code,ev_connector_types,ev_network,groups_with_access_code,access_days_time,street_address,city,zip,state,longitude,latitude
0,117709.0,Bexco Enterprises,2019-02-07,E,ELEC,['J1772'],Blink Network,Public,,8700 Rex Rd,Pico Rivera,90660.0,CA,-118.105339,33.979264
1,185373.0,"Walmart 2886 (Pico Rivera, CA)",2021-02-25,E,ELEC,"['CHADEMO', 'J1772COMBO']",Electrify America,Public,24 hours daily,8500 WASHINGTON BLVD,Pico Rivera,90660.0,CA,-118.10495,33.98645
2,197430.0,Pico Rivera Towne Center,2021-10-07,E,ELEC,['J1772'],Volta,Public,Mon 5:00am - 10:59pm; Tue 5:00am - 10:59pm; Wed 5:00am - 10:59pm; Thu 5:00am - 10:59pm; Fri 5:00am - 10:59pm; Sat 5:00am - 10:59pm; Sun 5:00am - 10:59pm,8982 Washington Blvd,Pico Rivera,90660.0,CA,-118.0999405,33.9841305
3,212402.0,Village Walk Pico Rivera,2022-03-25,E,ELEC,['J1772'],Volta,Public,Mon 5:00am - 10:59pm; Tue 5:00am - 10:59pm; Wed 5:00am - 10:59pm; Thu 5:00am - 10:59pm; Fri 5:00am - 10:59pm; Sat 5:00am - 10:59pm; Sun 5:00am - 10:59pm,8540 Whittier Boulevard,Pico Rivera,90660.0,CA,-118.0903275,34.002432
4,176659.0,SCPPA SOUTHWEST,2021-01-27,E,ELEC,['J1772'],ChargePoint Network,Public,24 hours daily,1160 Nicole Ct,Glendora,91740.0,CA,-117.822526,34.117961
5,176660.0,SCPPA SOUTHEAST,2021-01-27,E,ELEC,['J1772'],ChargePoint Network,Public,24 hours daily,1160 Nicole Ct,Glendora,91740.0,CA,-117.822374,34.117932
6,182624.0,SCPPA NORTHWEST2,2021-01-27,T,ELEC,['J1772'],ChargePoint Network,TEMPORARILY UNAVAILABLE (Public),24 hours daily,1172 Nicole Ct,Glendora,91740.0,CA,-117.822378,34.118084
7,182625.0,SCPPA NORTHEAST1,2021-01-27,T,ELEC,['J1772'],ChargePoint Network,TEMPORARILY UNAVAILABLE (Public),24 hours daily,1172 Nicole Ct,Glendora,91740.0,CA,-117.822256,34.11808
8,182626.0,SCPPA NORTHEAST2,2021-01-27,T,ELEC,['J1772'],ChargePoint Network,TEMPORARILY UNAVAILABLE (Public),24 hours daily,1172 Nicole Ct,Glendora,91740.0,CA,-117.822302,34.118089
9,182662.0,SCPPA NORTHWEST1,2021-01-27,E,ELEC,['J1772'],ChargePoint Network,Public,24 hours daily,1172 Nicole Ct,Glendora,91740.0,CA,-117.822426,34.118092
10,190518.0,"Kohl's Glendora, CA",2021-05-23,E,ELEC,['J1772'],Volta,Public,Mon 7:00am - 9:00pm; Tue 7:00am - 9:00pm; Wed 7:00am - 9:00pm; Thu 7:00am - 9:00pm; Fri 7:00am - 9:00pm; Sat 7:00am - 9:00pm; Sun 7:00am - 9:00pm,1225 S Lone Hill Ave,Glendora,91740.0,CA,-117.8328935,34.1172865
11,223515.0,TOYOTA GLENDORA SERVICE 1,2022-07-15,E,ELEC,['J1772'],ChargePoint Network,Public,24 hours daily,1949 Auto Centre Dr,Glendora,91740.0,CA,-117.825541,34.11809
12,223709.0,TOYOTA GLENDORA MONUM UNIT CT4K,2022-07-19,E,ELEC,['J1772'],ChargePoint Network,Public,24 hours daily,1949 Auto Centre Dr,Glendora,91740.0,CA,-117.826286,34.118593
13,260481.0,SCPPA SCPPA CPE200T,2023-05-09,T,ELEC,"['CHADEMO', 'J1772COMBO']",ChargePoint Network,TEMPORARILY UNAVAILABLE (Public),24 hours daily,1160 Nicole Ct,Glendora,91740.0,CA,-117.822457,34.118106
14,48727.0,Camino Real Chevrolet,2012-02-01,E,ELEC,['J1772'],Non-Networked,Private,Service center use only,2401 S Atlantic Blvd,Monterey Park,91754.0,CA,-118.148995,34.036123
15,63060.0,Los Angeles County Sheriff - Headquarters,2014-08-01,E,ELEC,['J1772'],POWERFLEX,Public,8am-5pm M-F,4700 Ramona Blvd,Monterey Park,91754.0,CA,-118.168137,34.060685
16,169310.0,East Los Angeles College - Parking Structure 3,2020-11-09,E,ELEC,['J1772'],Non-Networked,Public,Parking garage hours; permit required,1301 Avenida Cesar Chavez,Monterey Park,91754.0,CA,-118.150683,34.040986
17,171396.0,"Ralphs 715 (Monterey Park, CA)",2021-01-20,E,ELEC,"['CHADEMO', 'J1772COMBO']",Electrify America,Public,24 hours daily,330 N ATLANTIC BLVD EV,Monterey Park,91754.0,CA,-118.13393,34.06601
18,236595.0,Monterey Park,2022-11-24,E,ELEC,"['CHADEMO', 'J1772COMBO']",eVgo Network,Public,24 hours daily,320 W Newmark Ave,Monterey Park,91754.0,CA,-118.12661,34.05953
19,159775.0,BELL SOUTH BAY STATION 1,2020-06-12,E,ELEC,['J1772'],ChargePoint Network,Public,24 hours daily,11622 Aviation Blvd,Inglewood,90304.0,CA,-118.377776,33.928823
20,205726.0,Los Angeles County - Sheriff Lennox Central Patrol,2021-07-21,E,ELEC,['J1772'],POWERFLEX,Private,Employee use only,4331 Lennox Blvd,Lennox,90304.0,CA,-118.351911,33.938903
21,255538.0,I-WOOD IWOOD LIVE,2023-03-03,E,ELEC,['J1772'],ChargePoint Network,Public,24 hours daily,4821 W Century Blvd,Inglewood,90304.0,CA,-118.362119,33.945844
22,49133.0,John T Lyle Center for Regenerative Studies,2012-07-16,E,ELEC,['J1772'],Non-Networked,Public,24 hours daily; parking permit required,4105 University S Dr,Walnut,91768.0,CA,-117.82341,34.049341
23,53910.0,California State Polytechnic University - Parking Structure 2,2013-08-26,E,ELEC,['J1772'],Non-Networked,Public,24 hours daily; parking permit required for use,3801 W Temple Ave,Pomona,91768.0,CA,-117.820001,34.051634
24,155515.0,California State Polytechnic University - Parking Lot H,2020-04-14,E,ELEC,"['J1772', 'NEMA520']",Non-Networked,Public,24 hours daily; parking permit required; 4 hour limit; Drivers must bring their own J1772 cordset for Level 1 charging,3801 W Temple Ave,Pomona,91768.0,CA,-117.818795,34.061071
25,158687.0,H&S ENERGY H&S#23 CHEVRON,2020-06-12,E,ELEC,"['CHADEMO', 'J1772COMBO']",ChargePoint Network,Public,24 hours daily,3190 W Temple Ave,Pomona,91768.0,CA,-117.802596,34.046069
26,7242.0,Universal City Hilton,1998-05-30,E,ELEC,['NEMA520'],Non-Networked,Public - Call ahead,24 hours daily; pay lot; see valet for access; Drivers must bring their own J1772 cordset for Level 1 charging,333 Universal Terrace Pkwy,Universal City,91608.0,CA,-118.35904,34.138717
27,160124.0,STUDIO BNC,2020-06-12,E,ELEC,['J1772'],ChargePoint Network,Public,24 hours daily,"4050 Lankershim Blvd, Studio City, CA 91604",Universal City,91608.0,CA,-118.358434,34.142358
28,160133.0,STUDIO 2160-STATION 06,2020-06-12,E,ELEC,['J1772'],ChargePoint Network,Public,24 hours daily,2160 Parking Garage,Universal City,91608.0,CA,-118.359305,34.1426
29,160135.0,STUDIO 1360-STATION 06,2020-06-12,E,ELEC,['J1772'],ChargePoint Network,Public,24 hours daily,1360 Parking Garage,Universal City,91608.0,CA,-118.360628,34.139
30,160328.0,10UCP PRKG LVL 5 - D,2020-06-12,E,ELEC,['J1772'],ChargePoint Network,Public,24 hours daily,10 Universal Hollywood Dr,Universal City,91608.0,CA,-118.361223,34.137598
31,169231.0,Universal Studios Hollywood - Tesla Destination,2015-12-18,E,ELEC,"['J1772', 'TESLA']",Tesla Destination,Public,,8039 Universal City Plaza,Universal City,91608.0,CA,-118.353378,34.138117
32,178447.0,STUDIO 2160-STATION 04,2021-01-27,E,ELEC,['J1772'],ChargePoint Network,Public,24 hours daily,2160 Parking Garage,Universal City,91608.0,CA,-118.35928,34.142595
33,178448.0,STUDIO 2160-STATION 02,2021-01-27,E,ELEC,['J1772'],ChargePoint Network,Public,24 hours daily,2160 Parking Garage,Universal City,91608.0,CA,-118.359224,34.142589
34,178449.0,STUDIO 2160-STATION 05,2021-01-27,E,ELEC,['J1772'],ChargePoint Network,Public,24 hours daily,2160 Parking Garage,Universal City,91608.0,CA,-118.359294,34.142595
35,178450.0,STUDIO 2160-STATION 01,2021-01-27,E,ELEC,['J1772'],ChargePoint Network,Public,24 hours daily,2160 Parking Garage,Universal City,91608.0,CA,-118.359192,34.142577
36,178451.0,STUDIO 2160-STATION 03,2021-01-27,E,ELEC,['J1772'],ChargePoint Network,Public,24 hours daily,2160 Parking Garage,Universal City,91608.0,CA,-118.359248,34.142595
37,178455.0,STUDIO 1360-STATION 05,2021-01-27,E,ELEC,['J1772'],ChargePoint Network,Public,24 hours daily,1360 Parking Garage,Universal City,91608.0,CA,-118.360616,34.138998
38,178795.0,10UCP PRKG LVL 5 - E,2021-01-27,E,ELEC,['J1772'],ChargePoint Network,Public,24 hours daily,10 Universal Hollywood Dr,Universal City,91608.0,CA,-118.361302,34.137514
39,178796.0,10UCP PRKG LVL 5 - C,2021-01-27,E,ELEC,['J1772'],ChargePoint Network,Public,24 hours daily,10 Universal Hollywood Dr,Universal City,91608.0,CA,-118.36125,34.137638
40,178797.0,10UCP PRKG LVL 5 - B,2021-01-27,E,ELEC,['J1772'],ChargePoint Network,Public,24 hours daily,10 Universal Hollywood Dr,Universal City,91608.0,CA,-118.361266,34.137955
41,178798.0,10UCP PRKG LVL 5 - A,2021-01-27,E,ELEC,['J1772'],ChargePoint Network,Public,24 hours daily,10 Universal Hollywood Dr,Universal City,91608.0,CA,-118.361209,34.138135
42,223860.0,Universal Studio Tour,2021-06-04,E,ELEC,,WAVE,Private,Vehicles must have wireless charging capabilities,100 Universal City Plaza,Los Angeles,91608.0,CA,-118.3527,34.139038
43,123239.0,Maywood Academy High School,2019-04-01,E,ELEC,['J1772'],EV Connect,Private,,6125 Pine Ave,Maywood,90270.0,CA,-118.18904,33.983173
44,67305.0,Los Angeles County - Harbor UCLA Medical Center,2021-08-03,E,ELEC,['J1772'],POWERFLEX,Public,Garage business hours,1000 W Carson St,Torrance,90502.0,CA,-118.290921,33.828186
45,82328.0,Los Angeles County - Harbor UCLA Medical Center,2018-06-30,E,ELEC,['J1772'],Non-Networked,Private,,1000 W Carson St,Torrance,90502.0,CA,-118.294546,33.831538
46,213176.0,KNOX STATION 1,2022-04-01,E,ELEC,['J1772'],ChargePoint Network,Public,Mon 12:00am - 12:00am; Tue 12:00am - 12:00am; Wed 12:00am - 12:00am; Thu 12:00am - 12:00am; Fri 12:00am - 12:00am; Sat 12:00am - 12:00am; Sun 12:00am - 12:00am,680 Knox St,Torrance,90502.0,CA,-118.286921,33.853754
47,255685.0,THE ENCLAVE RETAIL CENTER 2,2023-03-09,E,ELEC,['J1772'],ChargePoint Network,Public,24 hours daily,980 W 190th St,Torrance,90502.0,CA,-118.298244,33.829634
48,255686.0,THE ENCLAVE RETAIL CENTER 1,2023-03-09,E,ELEC,['J1772'],ChargePoint Network,Public,24 hours daily,980 W 190th St,Torrance,90502.0,CA,-118.294011,33.857311
49,256878.0,THE ENCLAVE STATION 5385,2023-03-23,E,ELEC,['J1772'],ChargePoint Network,Public,24 hours daily,980 W 190th St,Torrance,90502.0,CA,-118.293807,33.857328
50,256889.0,THE ENCLAVE STATION 4592,2023-03-23,E,ELEC,['J1772'],ChargePoint Network,Public,24 hours daily,980 W 190th St,Torrance,90502.0,CA,-118.293903,33.85732
51,256890.0,THE ENCLAVE STATION 5392,2023-03-23,E,ELEC,['J1772'],ChargePoint Network,Public,24 hours daily,980 W 190th St,Torrance,90502.0,CA,-118.293753,33.857373
52,260156.0,THE ENCLAVE STATION 5411,2023-05-01,E,ELEC,['J1772'],ChargePoint Network,Public,24 hours daily,980 W 190th St,Torrance,90502.0,CA,-118.294086,33.857284
53,183030.0,SANTA CLARITA CYN COUNTRY PK,2021-01-27,E,ELEC,['J1772'],ChargePoint Network,Public,Mon 6:00am - 10:00pm; Tue 6:00am - 10:00pm; Wed 6:00am - 10:00pm; Thu 6:00am - 10:00pm; Fri 6:00am - 10:00pm; Sat 6:00am - 10:00pm; Sun 6:00am - 10:00pm,17615 Soledad Canyon Rd,Santa Clarita,91387.0,CA,-118.44232,34.4185
54,213880.0,MONTICELLO MONTICELLOS1,2022-04-13,E,ELEC,['J1772'],ChargePoint Network,Public,24 hours daily,27651 Lincoln Pl,Santa Clarita,91387.0,CA,-118.435794,34.414255
55,213881.0,MONTICELLO MONTICELLON1,2022-04-13,E,ELEC,['J1772'],ChargePoint Network,Public,24 hours daily,27651 Lincoln Pl,Santa Clarita,91387.0,CA,-118.435778,34.414255
56,158748.0,SANTA CLARITA RIVER TRAILHEAD,2020-06-12,E,ELEC,['J1772'],ChargePoint Network,Public,Mon 6:00am - 10:00pm; Tue 6:00am - 10:00pm; Wed 6:00am - 10:00pm; Thu 6:00am - 10:00pm; Fri 6:00am - 10:00pm; Sat 6:00am - 10:00pm; Sun 6:00am - 10:00pm,26441 Bouquet Canyon Rd,Santa Clarita,91350.0,CA,-118.53637,34.426485
57,183031.0,SANTA CLARITA SKATE PARK,2021-01-27,E,ELEC,['J1772'],ChargePoint Network,Public,Mon 6:00am - 10:00pm; Tue 6:00am - 10:00pm; Wed 6:00am - 10:00pm; Thu 6:00am - 10:00pm; Fri 6:00am - 10:00pm; Sat 6:00am - 10:00pm; Sun 6:00am - 10:00pm,20840 Centre Pointe Pkwy,Santa Clarita,91350.0,CA,-118.499076,34.412073
58,183034.0,SANTA CLARITA CENTRAL PARK,2021-01-27,E,ELEC,['J1772'],ChargePoint Network,Public,Mon 6:00am - 10:00pm; Tue 6:00am - 10:00pm; Wed 6:00am - 10:00pm; Thu 6:00am - 10:00pm; Fri 6:00am - 10:00pm; Sat 6:00am - 10:00pm; Sun 6:00am - 10:00pm,27150 Bouquet Canyon Rd,Santa Clarita,91350.0,CA,-118.523888,34.430732
59,205642.0,Los Angeles County Sheriff- Santa Clarita Golden Valley,2021-12-16,E,ELEC,['J1772'],POWERFLEX,Public,24 hours daily,26201 Golden Valley Rd,Santa Clarita,91350.0,CA,-118.50415,34.407277
60,152939.0,4882 N Libbit Ave,2020-01-23,E,ELEC,['J1772'],FLO,Public,24 hours daily,4882 N Libbit Ave,Encino,91436.0,CA,-118.4879229,34.15799831
61,152981.0,16501 Otsego St,2020-01-23,E,ELEC,['J1772'],FLO,Public,24 hours daily,16501 Otsego St,Los Angeles,91436.0,CA,-118.492409,34.163063
62,159328.0,EFC CHARGEPOINT EFC 1,2020-06-12,E,ELEC,['J1772'],ChargePoint Network,Public,24 hours daily,16133 Ventura Blvd,Los Angeles,91436.0,CA,-118.484614,34.157131
63,160814.0,ENCINO EXEC TWR STATION 2,2020-06-12,E,ELEC,['J1772'],ChargePoint Network,Public,24 hours daily,16633 Ventura Blvd,Los Angeles,91436.0,CA,-118.495257,34.158288
64,177064.0,EFC CHARGEPOINT EFC 2,2021-01-27,E,ELEC,['J1772'],ChargePoint Network,Public,24 hours daily,16133 Ventura Blvd,Los Angeles,91436.0,CA,-118.484622,34.157101
65,179388.0,ENCINO EXEC TWR STATION 01,2021-01-27,E,ELEC,['J1772'],ChargePoint Network,Public,24 hours daily,16633 Ventura Blvd,Los Angeles,91436.0,CA,-118.495278,34.158291
66,200509.0,ENCINO MBE CT4023 1,2021-11-04,E,ELEC,['J1772'],ChargePoint Network,Public,24 hours daily,16721 Ventura Blvd,Los Angeles,91436.0,CA,-118.497453,34.158538
67,222410.0,ENCINO MBE CPE1,2022-07-01,E,ELEC,"['CHADEMO', 'J1772COMBO']",ChargePoint Network,Public,24 hours daily,16721 Ventura Blvd,Los Angeles,91436.0,CA,-118.49709,34.158503
68,99222.0,16772 Chatsworth,2018-06-14,E,ELEC,['J1772'],SHELL_RECHARGE,Public,24 hours daily,16772 Chatsworth St,Granada Hills,91344.0,CA,-118.497144,34.264655
69,103801.0,LADWP - Rinaldi Receiving Station,2016-01-01,E,ELEC,['J1772'],Non-Networked,Private,Fleet use only,15901 Rinaldi St,Granada Hills,91344.0,CA,-118.478491,34.279341
70,152910.0,17729 Chatsworth Ave,2020-01-23,E,ELEC,['J1772'],FLO,Public,24 hours daily,17729 Chatsworth Ave,Granada Hills,91344.0,CA,-118.520876,34.264939
71,153130.0,18099 Rinaldi street,2020-01-29,E,ELEC,['J1772'],FLO,Public,24 hours daily,18099 Rinaldi Street,Los Angeles,91344.0,CA,-118.5591591,34.2747403
72,170695.0,Granada Village - Tesla Supercharger,2020-12-28,E,ELEC,['TESLA'],Tesla,Public,24 hours daily; for Tesla use only,10823 Zelzah Avenue,Granada Hills,91344.0,CA,-118.526496,34.266405
73,227562.0,10324 Woodley Ave,2022-09-14,E,ELEC,['J1772'],FLO,Public,24 hours daily,10324 Woodley Ave,Los Angeles,91344.0,CA,-118.4849726,34.25821444
74,257237.0,VKUMC VALLEY KOREAN 1,2023-03-29,E,ELEC,['J1772'],ChargePoint Network,Public,24 hours daily,10408 Balboa Blvd,Los Angeles,91344.0,CA,-118.50159,34.25984
75,257238.0,VKUMC VALLEY KOREAN 2,2023-03-29,E,ELEC,['J1772'],ChargePoint Network,Public,24 hours daily,10408 Balboa Blvd,Los Angeles,91344.0,CA,-118.50179,34.259743
76,75842.0,University of California Los Angeles - Housing Sawtelle Parking Structure,2016-04-12,E,ELEC,['J1772'],Non-Networked,Private,For UCLA students at University Village,3302 Sawtelle Blvd,Los Angeles,90066.0,CA,-118.426229,34.021353
77,80009.0,Whole Foods Market West Los Angeles,2016-11-01,E,ELEC,['J1772'],Volta,Public,Mon 5:00am - 9:00pm; Tue 5:00am - 9:00pm; Wed 5:00am - 9:00pm; Thu 5:00am - 9:00pm; Fri 5:00am - 9:00pm; Sat 5:00am - 9:00pm; Sun 5:00am - 9:00pm,11666 National Blvd,Los Angeles,90066.0,CA,-118.4376812,34.02236835
78,150357.0,BOA Washington-Centinela CA9-160,2019-12-19,E,ELEC,"['CHADEMO', 'J1772', 'J1772COMBO']",Electrify America,Public,24 hours daily,12316 W Washington Blvd,Los Angeles,90066.0,CA,-118.42726,33.99637
79,159184.0,WORTHE RESERVE STATION 03,2020-06-12,E,ELEC,['J1772'],ChargePoint Network,Public,24 hours daily,13031 W Jefferson Blvd,Los Angeles,90066.0,CA,-118.426225,33.976657
80,159688.0,DAI NEW STATION 5,2020-06-12,T,ELEC,['J1772'],ChargePoint Network,TEMPORARILY UNAVAILABLE (Public),24 hours daily,CA-90,Los Angeles,90066.0,CA,-118.418782,33.9806
81,159689.0,DAI NEW STATION 2,2020-06-12,T,ELEC,['J1772'],ChargePoint Network,TEMPORARILY UNAVAILABLE (Public),24 hours daily,12655 beatrice st,Los Angeles,90066.0,CA,-118.418795,33.980546
82,164846.0,Playa Jefferson,2020-08-06,T,ELEC,['J1772'],Blink Network,TEMPORARILY UNAVAILABLE (Public),,12777 W. Jefferson Blvd,Los Angeles,90066.0,CA,-118.418169,33.97804
83,176756.0,WORTHE RESERVE STATION 02,2021-01-27,E,ELEC,['J1772'],ChargePoint Network,Public,24 hours daily,13031 W Jefferson Blvd,Los Angeles,90066.0,CA,-118.426213,33.976622
84,176757.0,WORTHE RESERVE STATION 01,2021-01-27,E,ELEC,['J1772'],ChargePoint Network,Public,24 hours daily,13031 W Jefferson Blvd,Los Angeles,90066.0,CA,-118.426195,33.97659
85,177804.0,DAI NEW STATION 3,2021-01-27,T,ELEC,['J1772'],ChargePoint Network,TEMPORARILY UNAVAILABLE (Public),24 hours daily,CA-90,Los Angeles,90066.0,CA,-118.418785,33.980573
86,177805.0,DAI NEW STATION 4,2021-01-27,T,ELEC,['J1772'],ChargePoint Network,TEMPORARILY UNAVAILABLE (Public),24 hours daily,CA-90,Los Angeles,90066.0,CA,-118.418766,33.980654
87,177806.0,DAI NEW STATION 1,2021-01-27,T,ELEC,['J1772'],ChargePoint Network,TEMPORARILY UNAVAILABLE (Public),24 hours daily,CA-90,Los Angeles,90066.0,CA,-118.418772,33.980609
88,190632.0,THE LUCKY THE LUCKY RET.,2021-06-02,E,ELEC,['J1772'],ChargePoint Network,Public,Mon 8:00am - 7:00pm; Tue 8:00am - 7:00pm; Wed 8:00am - 7:00pm; Thu 8:00am - 7:00pm; Fri 8:00am - 7:00pm; Sat 9:00am - 5:00pm; Sun 9:00am - 5:00pm,12811 W Washington Blvd,Los Angeles,90066.0,CA,-118.436966,33.996166
89,191432.0,FORTY55CHARGE FORTY55,2021-06-24,E,ELEC,['J1772'],ChargePoint Network,Public,24 hours daily,4055 Redwood Ave,Los Angeles,90066.0,CA,-118.441935,33.991928
90,207272.0,Haven Apartments - Tesla Supercharger,2022-02-18,E,ELEC,['TESLA'],Tesla,Public,24 hours daily; for Tesla use only,11924 Washington Boulevard,Culver City,90066.0,CA,-118.420422,33.997664
91,220401.0,4519 S Centinela Ave,2022-06-01,E,ELEC,['J1772'],FLO,Public,24 hours daily,4519 S Centinela,Los Angeles,90066.0,CA,-118.4230292,33.99255257
92,220403.0,11500 Palms Blvd,2022-06-01,E,ELEC,['J1772'],FLO,Public,24 hours daily,11500 Palms Blvd,Los Angeles,90066.0,CA,-118.4286681,34.01665482
93,151052.0,Los Cerritos Center,2015-03-31,E,ELEC,['J1772'],Volta,Public,Mon 5:00am - 10:59pm; Tue 5:00am - 10:59pm; Wed 5:00am - 10:59pm; Thu 5:00am - 10:59pm; Fri 5:00am - 10:59pm; Sat 5:00am - 10:59pm; Sun 5:00am - 10:59pm,500 Los Cerritos Center,Cerritos,90701.0,CA,-118.09334725,33.85951295
94,113084.0,InterContinental Hotel Los Angeles - Tesla Destination,2014-07-07,E,ELEC,"['J1772', 'TESLA']",Tesla Destination,Public,,2151 Avenue of the Stars,Los Angeles,90067.0,CA,-118.411911,34.054371
95,155148.0,TOPA 1800 AOS 3,2020-04-03,E,ELEC,['J1772'],ChargePoint Network,Public,24 hours daily,1800 Avenue of the Stars,Los Angeles,90067.0,CA,-118.417364,34.061032
96,158704.0,CENTURY PARK 2049 EV BAY 3-4,2020-06-12,E,ELEC,['J1772'],ChargePoint Network,Public,24 hours daily,2049 Century Park E,Los Angeles,90067.0,CA,-118.413095,34.058674
97,160204.0,ARE - 1900 1900 - ELROY,2020-06-12,E,ELEC,['J1772'],ChargePoint Network,Public,24 hours daily,1900 Avenue of the Stars Level A,Los Angeles,90067.0,CA,-118.417105,34.060328
98,160424.0,CPW GARAGE #2,2020-06-12,E,ELEC,['J1772'],ChargePoint Network,Public,24 hours daily,10250 Santa Monica Blvd,Los Angeles,90067.0,CA,-118.418879,34.057569
99,160473.0,10100 SM BLVD TOWER L,2020-06-12,E,ELEC,['J1772'],ChargePoint Network,Public,24 hours daily,10100 Santa Monica Blvd,Los Angeles,90067.0,CA,-118.416586,34.061698
100,160566.0,IRVINE  CO  OFC FOX PLAZA PS 06,2020-06-12,E,ELEC,['J1772'],ChargePoint Network,Public,24 hours daily,2121 Avenue of the Stars,Los Angeles,90067.0,CA,-118.414072,34.054281
101,160905.0,1888 CPE STATION 02,2020-06-12,E,ELEC,['J1772'],ChargePoint Network,Public,24 hours daily,1888 Century Park E,Los Angeles,90067.0,CA,-118.413583,34.061314
102,175944.0,CENTURY PARK 2049 EV BAY 1-2,2021-01-27,E,ELEC,['J1772'],ChargePoint Network,Public,24 hours daily,2049 Century Park E,Los Angeles,90067.0,CA,-118.413122,34.058653
103,175945.0,CENTURY PARK 2049 EV BAY 5,2021-01-27,E,ELEC,['J1772'],ChargePoint Network,Public,24 hours daily,2049 Century Park E,Los Angeles,90067.0,CA,-118.413073,34.058687
104,175946.0,CENTURY PARK 2049 EV BAY 6,2021-01-27,E,ELEC,['J1772'],ChargePoint Network,Public,24 hours daily,2049 Century Park E,Los Angeles,90067.0,CA,-118.413027,34.058713
105,175947.0,CENTURY PARK 2049 EV BAY 9,2021-01-27,E,ELEC,['J1772'],ChargePoint Network,Public,24 hours daily,2049 Century Park E,Los Angeles,90067.0,CA,-118.41299,34.058737
106,175948.0,CENTURY PARK 2049 EV BAY 7-8,2021-01-27,E,ELEC,['J1772'],ChargePoint Network,Public,24 hours daily,2049 Century Park E,Los Angeles,90067.0,CA,-118.413011,34.058727
107,177750.0,WATT PLAZA L4 EV11 EV12,2021-01-27,E,ELEC,['J1772'],ChargePoint Network,Public,24 hours daily,1875 Century Park E,Los Angeles,90067.0,CA,-118.41518,34.06113
108,177751.0,WATT PLAZA L3 EV7 EV8,2021-01-27,E,ELEC,['J1772'],ChargePoint Network,Public,24 hours daily,1875 Century Park E,Los Angeles,90067.0,CA,-118.415062,34.061158
109,177752.0,WATT PLAZA L3 EV5 EV6,2021-01-27,E,ELEC,['J1772'],ChargePoint Network,Public,24 hours daily,1875 Century Park E,Los Angeles,90067.0,CA,-118.415032,34.061177
110,177753.0,WATT PLAZA L4 EV3 EV4,2021-01-27,E,ELEC,['J1772'],ChargePoint Network,Public,24 hours daily,1875 Century Park E,Los Angeles,90067.0,CA,-118.415043,34.061231
111,177754.0,WATT PLAZA L3 EV3 EV4,2021-01-27,E,ELEC,['J1772'],ChargePoint Network,Public,24 hours daily,1875 Century Park E,Los Angeles,90067.0,CA,-118.415007,34.061194
112,177755.0,WATT PLAZA L3 EV VAN1,2021-01-27,E,ELEC,['J1772'],ChargePoint Network,Public,24 hours daily,1875 Century Park E,Los Angeles,90067.0,CA,-118.414873,34.061488
113,177756.0,WATT PLAZA L4 EV VAN2,2021-01-27,E,ELEC,['J1772'],ChargePoint Network,Public,24 hours daily,1875 Century Park E,Los Angeles,90067.0,CA,-118.414905,34.06147
114,177758.0,WATT PLAZA L4 EV5 EV6,2021-01-27,E,ELEC,['J1772'],ChargePoint Network,Public,24 hours daily,1875 Century Park E,Los Angeles,90067.0,CA,-118.41506,34.061214
115,178101.0,CENTURY PARK 2029 EV BAY 6,2021-01-27,E,ELEC,['J1772'],ChargePoint Network,Public,24 hours daily,2029 Century Park E,Los Angeles,90067.0,CA,-118.41391,34.059596
116,178102.0,CENTURY PARK 2029 EV BAY 9,2021-01-27,E,ELEC,['J1772'],ChargePoint Network,Public,24 hours daily,2029 Century Park E,Los Angeles,90067.0,CA,-118.413864,34.059624
117,178105.0,CENTURY PARK 2029 EV BAY 7-8,2021-01-27,E,ELEC,['J1772'],ChargePoint Network,Public,24 hours daily,2029 Century Park E,Los Angeles,90067.0,CA,-118.41389,34.059609
118,178537.0,ARE - 1900 1900 - ASTRO,2021-01-27,E,ELEC,['J1772'],ChargePoint Network,Public,24 hours daily,1900 Avenue of the Stars Level A,Los Angeles,90067.0,CA,-118.416916,34.060273
119,178838.0,CENTURY PARK AOS EV BAY 2-1,2021-01-27,E,ELEC,['J1772'],ChargePoint Network,Public,24 hours daily,2000 Avenue of the Stars,Los Angeles,90067.0,CA,-118.414091,34.058414
120,178990.0,10100 SM BLVD ANNEX L,2021-01-27,E,ELEC,['J1772'],ChargePoint Network,Public,24 hours daily,10100 Santa Monica Blvd,Los Angeles,90067.0,CA,-118.416662,34.06165
121,178991.0,10100 SM BLVD ANNEX R,2021-01-27,E,ELEC,['J1772'],ChargePoint Network,Public,24 hours daily,10100 Santa Monica Blvd,Los Angeles,90067.0,CA,-118.416644,34.061667
122,178992.0,10100 SM BLVD TOWER R,2021-01-27,E,ELEC,['J1772'],ChargePoint Network,Public,24 hours daily,10100 Santa Monica Blvd,Los Angeles,90067.0,CA,-118.416606,34.061686
123,179155.0,IRVINE  CO  OFC FOX PLAZA PS 05,2021-01-27,E,ELEC,['J1772'],ChargePoint Network,Public,24 hours daily,2121 Avenue of the Stars,Los Angeles,90067.0,CA,-118.414053,34.054307
124,179156.0,IRVINE  CO  OFC FOX PLAZA PS 04,2021-01-27,E,ELEC,['J1772'],ChargePoint Network,Public,24 hours daily,2121 Avenue of the Stars,Los Angeles,90067.0,CA,-118.414038,34.054338
125,179157.0,IRVINE  CO  OFC FOX PLAZA PS 01,2021-01-27,T,ELEC,['J1772'],ChargePoint Network,TEMPORARILY UNAVAILABLE (Public),24 hours daily,2121 Avenue of the Stars,Los Angeles,90067.0,CA,-118.413978,34.05442
126,179158.0,IRVINE  CO  OFC FOX PLAZA PS 02,2021-01-27,E,ELEC,['J1772'],ChargePoint Network,Public,24 hours daily,2121 Avenue of the Stars,Los Angeles,90067.0,CA,-118.413998,34.054395
127,179159.0,IRVINE  CO  OFC FOX PLAZA PS 03,2021-01-27,E,ELEC,['J1772'],ChargePoint Network,Public,24 hours daily,2121 Avenue of the Stars,Los Angeles,90067.0,CA,-118.414018,34.054364
128,179463.0,1888 CPE STATION 01,2021-01-27,E,ELEC,['J1772'],ChargePoint Network,Public,24 hours daily,1888 Century Park E,Los Angeles,90067.0,CA,-118.413431,34.061295
129,182398.0,CENTURY PARK D LEVEL 02,2021-01-27,E,ELEC,['J1772'],ChargePoint Network,Public,24 hours daily,2000 Avenue of the Stars,Los Angeles,90067.0,CA,-118.41501,34.058568
130,182406.0,CENTURY PARK D LEVEL 01,2021-01-27,E,ELEC,['J1772'],ChargePoint Network,Public,24 hours daily,2000 Avenue of the Stars,Los Angeles,90067.0,CA,-118.41498,34.058542
131,190433.0,"Westfield Century City (Los Angeles, CA)",2021-05-30,E,ELEC,"['CHADEMO', 'J1772COMBO']",Electrify America,Public,24 hours daily,10250 Santa Monica Blvd,Los Angeles,90067.0,CA,-118.41993,34.05794
132,190822.0,CENTURY PARK AOS EV BAY 9-8,2021-06-09,E,ELEC,['J1772'],ChargePoint Network,Public,24 hours daily,2000 Avenue of the Stars,Los Angeles,90067.0,CA,-118.414375,34.058708
133,203330.0,CPW GARAGE #1,2021-12-31,E,ELEC,['J1772'],ChargePoint Network,Public,24 hours daily,10250 Santa Monica Blvd,Los Angeles,90067.0,CA,-118.418997,34.057678
134,203331.0,CPW GARAGE #3,2021-12-31,E,ELEC,['J1772'],ChargePoint Network,Public,24 hours daily,10250 Santa Monica Blvd,Los Angeles,90067.0,CA,-118.4199,34.058522
135,204521.0,CENTURY PARK 2029 EV 50-51,2022-01-08,E,ELEC,['J1772'],ChargePoint Network,Public,24 hours daily,2029 Century Park E,Los Angeles,90067.0,CA,-118.41388,34.05976
136,204523.0,CENTURY PARK 2029 EV 52-53,2022-01-08,E,ELEC,['J1772'],ChargePoint Network,Public,24 hours daily,2029 Century Park E,Los Angeles,90067.0,CA,-118.413945,34.059573
137,204680.0,CENTURY PARK AOS EV BAY 3-4,2022-01-12,E,ELEC,['J1772'],ChargePoint Network,Public,24 hours daily,2000 Avenue of the Stars,Los Angeles,90067.0,CA,-118.414285,34.058431
138,204683.0,CENTURY PARK AOS EV BAY 6,2022-01-12,E,ELEC,['J1772'],ChargePoint Network,Public,24 hours daily,2000 Avenue of the Stars,Los Angeles,90067.0,CA,-118.414221,34.058784
139,204684.0,CENTURY PARK AOS EV BAY 5-7,2022-01-12,E,ELEC,['J1772'],ChargePoint Network,Public,24 hours daily,2000 Avenue of the Stars,Los Angeles,90067.0,CA,-118.414402,34.058609
140,212942.0,WATT PLAZA L4 EV7 EV8,2022-03-27,E,ELEC,['J1772'],ChargePoint Network,Public,24 hours daily,1875 Century Park E,Los Angeles,90067.0,CA,-118.415105,34.061188
141,212943.0,WATT PLAZA L3 EV1 EV2,2022-03-27,E,ELEC,['J1772'],ChargePoint Network,Public,24 hours daily,1875 Century Park E,Los Angeles,90067.0,CA,-118.414992,34.061215
142,212944.0,WATT PLAZA L4 EV1 EV2,2022-03-27,E,ELEC,['J1772'],ChargePoint Network,Public,24 hours daily,1875 Century Park E,Los Angeles,90067.0,CA,-118.415027,34.061242
143,212946.0,WATT PLAZA L4 EV9 EV10,2022-03-27,E,ELEC,['J1772'],ChargePoint Network,Public,24 hours daily,1875 Century Park E,Los Angeles,90067.0,CA,-118.415143,34.061155
144,223740.0,Bank of America - Private Bank,2020-07-06,E,ELEC,['J1772'],ChargePoint Network,Private,,2049 Century Park E,Los Angeles,90067.0,CA,-118.412867,34.058659
145,225501.0,10100 SM BLVD TR1,2022-08-13,E,ELEC,['J1772'],ChargePoint Network,Public,24 hours daily,10100 Santa Monica Blvd,Los Angeles,90067.0,CA,-118.416636,34.061456
146,225502.0,10100 SM BLVD TR2,2022-08-13,E,ELEC,['J1772'],ChargePoint Network,Public,24 hours daily,10100 Santa Monica Blvd,Los Angeles,90067.0,CA,-118.416659,34.06146
147,225505.0,10100 SM BLVD TR3,2022-08-13,E,ELEC,['J1772'],ChargePoint Network,Public,24 hours daily,10100 Santa Monica Blvd,Los Angeles,90067.0,CA,-118.416632,34.061471
148,230712.0,Century Park Parking SE & NE,2022-09-15,E,ELEC,['J1772'],AMPUP,Public - Credit card at all times,Contact station for hours of availability.,2049 Century Park E,Los Angeles,90067.0,CA,-118.412867,34.058659
149,230713.0,Century Park Parking SW & NW,2022-09-15,E,ELEC,['J1772'],AMPUP,Public - Credit card at all times,Garage business hours,2000 Ave of the Stars,Los Angeles,90067.0,CA,-118.415803,34.058925
150,241230.0,"FOX STUDIO LOT 103, P1:166-139",2023-01-06,E,ELEC,['J1772'],ChargePoint Network,Public,24 hours daily,10201 West Pico Blvd,Los Angeles,90067.0,CA,-118.40964,34.051222
151,241231.0,"FOX STUDIO LOT 103, P1:111-112",2023-01-06,T,ELEC,['J1772'],ChargePoint Network,TEMPORARILY UNAVAILABLE (Public),24 hours daily,10201 West Pico Blvd,Los Angeles,90067.0,CA,-118.409502,34.051234
152,241232.0,"FOX STUDIO LOT 101, P2:109-110",2023-01-06,E,ELEC,['J1772'],ChargePoint Network,Public,24 hours daily,10201 W Pico Blvd,Los Angeles,90067.0,CA,-118.410453,34.052394
153,241233.0,"FOX STUDIO LOT 103, P1:110-109",2023-01-06,E,ELEC,['J1772'],ChargePoint Network,Public,24 hours daily,10201 West Pico Blvd,Los Angeles,90067.0,CA,-118.409561,34.051204
154,241234.0,"FOX STUDIO LOT 100, P1:44-43",2023-01-06,E,ELEC,['J1772'],ChargePoint Network,Public,24 hours daily,10201 West Pico Blvd Bldg 100,Los Angeles,90067.0,CA,-118.411027,34.051817
155,241236.0,"FOX STUDIO LOT 101, P2:107-108",2023-01-06,E,ELEC,['J1772'],ChargePoint Network,Public,24 hours daily,10201 West Pico Blvd.,Los Angeles,90067.0,CA,-118.410423,34.052381
156,160202.0,PUBLIC HGCDD02,2020-06-12,E,ELEC,['J1772'],ChargePoint Network,Public,24 hours daily,21795-21899 Pioneer Blvd,Hawaiian Gardens,90715.0,CA,-118.082449,33.83039
157,197451.0,Vicino Apartment Homes,2021-10-04,E,ELEC,['J1772'],Non-Networked,Public - Credit card at all times,24 hours daily,12350 Del Amo Blvd,Lakewood,90715.0,CA,-118.068521906701,33.8457367994477
158,7233.0,Westfield Parking Garage 1st Floor,1998-05-30,E,ELEC,['J1772'],Volta,Public,Mon 5:00am - 10:59pm; Tue 5:00am - 10:59pm; Wed 5:00am - 10:59pm; Thu 5:00am - 10:59pm; Fri 5:00am - 10:59pm; Sat 5:00am - 10:59pm; Sun 5:00am - 10:59pm,14006 Riverside Dr,Sherman Oaks,91423.0,CA,-118.4389655,34.1564065
159,78830.0,LADWP - Substation DS-73,1999-10-15,E,ELEC,['CHADEMO'],Non-Networked,Private - Government only,,14061 Riverside Dr,Sherman Oaks,91423.0,CA,-118.439442,34.1581031
160,152131.0,LADWP - Sunnyslope,2018-10-01,E,ELEC,['J1772'],Non-Networked,Public,24 hours daily,4847 Sunnyslope Ave,Sherman Oaks,91423.0,CA,-118.42708,34.158486
161,156165.0,13831 Riverside Dr,2020-05-09,E,ELEC,['J1772'],SHELL_RECHARGE,Public,24 hours daily,13831 Riverside Dr,Los Angeles,91423.0,CA,-118.434634,34.157716
162,156174.0,13214 Moorpark St,2020-05-09,E,ELEC,['J1772'],FLO,Public,24 hours daily,13214 Moorpark St,Van Nuys,91423.0,CA,-118.4209967,34.1502776
163,167299.0,Whole Foods Market Sherman Oaks SHM,2020-09-28,E,ELEC,['J1772'],Volta,Public,Mon 6:00am - 9:00pm; Tue 6:00am - 9:00pm; Wed 6:00am - 9:00pm; Thu 6:00am - 9:00pm; Fri 6:00am - 9:00pm; Sat 6:00am - 9:00pm; Sun 6:00am - 9:00pm,"14311 Ventura Boulevard,",Sherman Oaks,91423.0,CA,-118.444939,34.15066
164,182759.0,FASHION SQUARE WESTFIELD FS #1,2021-01-27,E,ELEC,['J1772'],ChargePoint Network,Public,Mon 8:00am - 9:30pm; Tue 8:00am - 9:30pm; Wed 8:00am - 9:30pm; Thu 8:00am - 9:30pm; Fri 8:00am - 9:30pm; Sat 8:00am - 9:30pm; Sun 8:00am - 9:30pm,14006 Riverside Dr,Los Angeles,91423.0,CA,-118.437109,34.157068
165,182761.0,FASHION SQUARE WESTFIELD FS #2,2021-01-27,E,ELEC,['J1772'],ChargePoint Network,Public,Mon 8:00am - 9:30pm; Tue 8:00am - 9:30pm; Wed 8:00am - 9:30pm; Thu 8:00am - 9:30pm; Fri 8:00am - 9:30pm; Sat 8:00am - 9:30pm; Sun 8:00am - 9:30pm,14006 Riverside Dr,Los Angeles,91423.0,CA,-118.437068,34.156614
166,182762.0,FASHION SQUARE WESTFIELD FS #3,2021-01-27,E,ELEC,['J1772'],ChargePoint Network,Public,Mon 8:00am - 9:30pm; Tue 8:00am - 9:30pm; Wed 8:00am - 9:30pm; Thu 8:00am - 9:30pm; Fri 8:00am - 9:30pm; Sat 8:00am - 9:30pm; Sun 8:00am - 9:30pm,14006 Riverside Dr,Los Angeles,91423.0,CA,-118.438714,34.156579
167,192796.0,Ralph's 222 Ventura Blvd,2021-07-13,E,ELEC,"['CHADEMO', 'J1772COMBO']",Electrify America,Public,24 hours daily,14049 Ventura Blvd,Sherman Oaks,91423.0,CA,-118.43972,34.14994
168,205820.0,Westfield Fashion Square Macy's Lower Level,2022-02-04,E,ELEC,['J1772'],Volta,Public,Mon 5:00am - 10:59pm; Tue 5:00am - 10:59pm; Wed 5:00am - 10:59pm; Thu 5:00am - 10:59pm; Fri 5:00am - 10:59pm; Sat 5:00am - 10:59pm; Sun 5:00am - 10:59pm,14006 Riverside Dr,Sherman Oaks,91423.0,CA,-118.4344545,34.15684655
169,218999.0,13948 Moorpark St,2022-05-21,E,ELEC,['J1772'],FLO,Public,24 hours daily,13948 Moorpark St,Los Angeles,91423.0,CA,-118.4371329,34.1502537
170,219002.0,4455 Hazeltine Ave,2022-05-21,E,ELEC,['J1772'],FLO,Public,24 hours daily,4455 Hazeltine Ave,Los Angeles,91423.0,CA,-118.4400587,34.15184319
171,219791.0,14311 Addison St,2022-05-25,E,ELEC,['J1772'],FLO,Public,24 hours daily,14311 Addison St,Los Angeles,91423.0,CA,-118.4448241,34.16128049
172,219794.0,14316 Huston St,2022-05-25,E,ELEC,['J1772'],FLO,Public,24 hours daily,14316 Huston St,Los Angeles,91423.0,CA,-118.4448349,34.15946554
173,220459.0,4536 Colbath Ave,2022-06-02,E,ELEC,['J1772'],FLO,Public,24 hours daily,4536 Colbath Ave,Los Angeles,91423.0,CA,-118.4365116,34.15410424
174,222234.0,13216 Riverside Dr,2022-06-30,E,ELEC,['J1772'],FLO,Public,24 hours daily,13216 Riverside Dr,Los Angeles,91423.0,CA,-118.4209796,34.15771593
175,222581.0,12954 Riverside Dr,2022-07-07,E,ELEC,['J1772'],FLO,Public,24 hours daily,12954 Riverside Dr,Los Angeles,91423.0,CA,-118.4155529,34.15771761
176,253637.0,Westfield Fashion Square Macy's Upper Level,2023-02-08,E,ELEC,['J1772'],Volta,Public,Mon 5:00am - 10:59pm; Tue 5:00am - 10:59pm; Wed 5:00am - 10:59pm; Thu 5:00am - 10:59pm; Fri 5:00am - 10:59pm; Sat 5:00am - 10:59pm; Sun 5:00am - 10:59pm,14006 Riverside Dr,Sherman Oaks,91423.0,CA,-118.434452,34.156905
177,253729.0,DS-73,2023-02-08,E,ELEC,"['CHADEMO', 'J1772COMBO']",SHELL_RECHARGE,Public,24 hours daily,14061 Riverside Dr,Sherman Oaks,91423.0,CA,-118.439487,34.157922
178,259535.0,4847 Sunnyslope Ave,2023-04-18,E,ELEC,['J1772'],FLO,Public,24 hours daily,4847 Sunnyslope,Los Angeles,91423.0,CA,-118.426981,34.158403
179,39910.0,Nissan of Mission Hills,2011-03-15,E,ELEC,['J1772'],Non-Networked,Public - Call ahead,Dealership business hours,11000 Sepulveda Blvd,Mission Hills,91345.0,CA,-118.466606,34.269809
180,48123.0,Nissan of Mission Hills,2011-03-15,E,ELEC,['J1772'],Non-Networked,Private,,11000 Sepulveda Blvd,Mission Hills,91345.0,CA,-118.466606,34.269809
181,95980.0,Providence Holy Cross Medical Center - Cancer Research Center,2012-04-01,E,ELEC,['J1772'],Blink Network,Public,,15031 Rinaldi Street,Mission Hills,91345.0,CA,-118.460143,34.27922
182,95982.0,Providence Holy Cross Medical Center - General Parking,2012-04-01,E,ELEC,['J1772'],Blink Network,Public,,15031 Rinaldi Street,Mission Hills,91345.0,CA,-118.461522,34.280226
183,99252.0,Mission Area PD,2018-06-14,E,ELEC,['J1772'],SHELL_RECHARGE,Public,24 hours daily,11121 Sepulveda Blvd,Mission Hills,91345.0,CA,-118.468,34.272758
184,100211.0,10432 Sepulveda,2018-08-03,E,ELEC,['J1772'],SHELL_RECHARGE,Public,24 hours daily,10432 Sepulveda,Los Angeles,91345.0,CA,-118.467125,34.261249
185,103602.0,10331 Langdon Ave,2018-09-27,E,ELEC,['J1772'],SHELL_RECHARGE,Public,24 hours daily,10331 Langdon Ave,Los Angeles,91345.0,CA,-118.469755,34.257703
186,152130.0,LADWP - Chatsworth,2018-10-01,E,ELEC,['J1772'],Non-Networked,Public,24 hours daily,15350 Chatsworth St,Mission Hills,91345.0,CA,-118.466124,34.264345
187,153245.0,14901 Rinaldi street,2020-02-01,E,ELEC,['J1772'],FLO,Public,24 hours daily,14901 Rinaldi Street,Los Angeles,91345.0,CA,-118.4580059,34.27909442
188,191212.0,LADWP - Pole,2018-10-01,E,ELEC,['J1772'],Non-Networked,Public,24 hours daily,15350 Chatsworth St,Mission Hills,91345.0,CA,-118.466124,34.264345
189,252010.0,DRIVE 1 PUBLIC STATION,2023-01-25,E,ELEC,['J1772'],ChargePoint Network,Public,24 hours daily,San Fernando Mission / Sepulveda,Los Angeles,91345.0,CA,-118.46763,34.27195
190,223856.0,South Valley Health Center,2020-09-25,E,ELEC,,WAVE,Private - Fleet customers only,Vehicles must have wireless charging capabilities,38359 40th St E,Palmdale,93552.0,CA,-118.05678,34.57896
191,99714.0,Soledad MetroLink Train Station,2018-06-01,E,ELEC,"['CHADEMO', 'J1772COMBO']",EV Connect,Public,,22122 Soledad Canyon Rd,Santa Clarita,91351.0,CA,-118.524156,34.415081
192,199524.0,SANTA CLARITA CYN CNTRY CC1,2021-10-31,E,ELEC,['J1772'],ChargePoint Network,Public,Mon 6:00am - 10:00pm; Tue 6:00am - 10:00pm; Wed 6:00am - 10:00pm; Thu 6:00am - 10:00pm; Fri 6:00am - 10:00pm; Sat 6:00am - 10:00pm; Sun 6:00am - 10:00pm,18410 Sierra Hwy,Santa Clarita,91351.0,CA,-118.4541,34.418297
193,199525.0,SANTA CLARITA CYN CNTRY CC3,2021-10-31,E,ELEC,['J1772'],ChargePoint Network,Public,Mon 6:00am - 10:00pm; Tue 6:00am - 10:00pm; Wed 6:00am - 10:00pm; Thu 6:00am - 10:00pm; Fri 6:00am - 10:00pm; Sat 6:00am - 10:00pm; Sun 6:00am - 10:00pm,18410 Sierra Hwy,Santa Clarita,91351.0,CA,-118.45416,34.41816
194,199526.0,SANTA CLARITA CYN CNTRY CC2,2021-10-31,E,ELEC,['J1772'],ChargePoint Network,Public,Mon 6:00am - 10:00pm; Tue 6:00am - 10:00pm; Wed 6:00am - 10:00pm; Thu 6:00am - 10:00pm; Fri 6:00am - 10:00pm; Sat 6:00am - 10:00pm; Sun 6:00am - 10:00pm,18410 Sierra Hwy,Santa Clarita,91351.0,CA,-118.45468,34.417454
195,201654.0,SANTA CLARITA CYN CNTRY CC4,2021-11-27,E,ELEC,['J1772'],ChargePoint Network,Public,Mon 6:00am - 10:00pm; Tue 6:00am - 10:00pm; Wed 6:00am - 10:00pm; Thu 6:00am - 10:00pm; Fri 6:00am - 10:00pm; Sat 6:00am - 10:00pm; Sun 6:00am - 10:00pm,18410 Sierra Hwy,Santa Clarita,91351.0,CA,-118.454481,34.417612
196,228494.0,Canyon Country Plaza,2015-08-28,E,ELEC,"['CHADEMO', 'J1772', 'J1772COMBO']",eVgo Network,Public,24 hours daily,19242 Soledad Canyon Rd,Canyon Country,91351.0,CA,-118.471113,34.415008
197,43478.0,Malibu Country Mart,2011-08-20,E,ELEC,['J1772'],Non-Networked,Public,24 hours daily,3835 Cross Creek Rd,Malibu,90265.0,CA,-118.686393,34.035802
198,49333.0,Malibu Civic Center,2011-07-01,E,ELEC,['J1772'],Non-Networked,Public,24 hours daily,23525 Civic Center Way,Malibu,90265.0,CA,-118.689023,34.037227
199,113110.0,Geoffrey's Malibu - Tesla Destination,2017-10-16,E,ELEC,['TESLA'],Tesla Destination,Public,,27400 Coast Hwy,Malibu,90265.0,CA,-118.769613,34.025182
200,113111.0,Paradise Cove Beach Cafe - Tesla Destination,2017-12-08,E,ELEC,"['J1772', 'TESLA']",Tesla Destination,Public,,28128 Pacific Coast Hwy,Malibu,90265.0,CA,-118.787141,34.020235
201,149326.0,Whole Foods and the Park Malibu - Tesla Supercharger,2019-09-30,E,ELEC,['TESLA'],Tesla,Public,24 hours daily; for Tesla use only,23475 Civic Center Way,Malibu,90265.0,CA,-118.686056,34.037333
202,159069.0,TPCC CHARGE 01,2020-06-12,E,ELEC,['J1772'],ChargePoint Network,Public,24 hours daily,23401 Civic Center Way,Malibu,90265.0,CA,-118.68572,34.03827
203,159662.0,PEPPERDINE U. RHO LOT,2020-06-12,E,ELEC,['J1772'],ChargePoint Network,Public,24 hours daily,Towers Rd,Malibu,90265.0,CA,-118.711844,34.042663
204,169869.0,PEPPERDINE U. VISITOR LOT 1,2020-12-03,E,ELEC,['J1772'],ChargePoint Network,Public,24 hours daily,24255 Pacific Coast Hwy,Malibu,90265.0,CA,-118.706343,34.039408
205,170437.0,Malibu Village - Tesla Supercharger,2020-12-14,E,ELEC,['TESLA'],Tesla,Public,24 hours daily; for Tesla use only,3862 Cross Creek Road,Malibu,90265.0,CA,-118.683845,34.03588
206,181822.0,PEPPERDINE U. VISITOR LOT 2,2021-01-27,E,ELEC,['J1772'],ChargePoint Network,Public,24 hours daily,24255 Pacific Coast Hwy,Malibu,90265.0,CA,-118.706371,34.039386
207,189083.0,CITY OF MALIBU CIVICCENTERWY 2,2021-04-30,E,ELEC,['J1772'],ChargePoint Network,Public,24 hours daily,Civic Ctr / Malibu Library,Malibu,90265.0,CA,-118.688643,34.036506
208,189084.0,CITY OF MALIBU CIVICCENTERWY 1,2021-04-30,E,ELEC,['J1772'],ChargePoint Network,Public,24 hours daily,Civic Ctr / Malibu Library,Malibu,90265.0,CA,-118.688582,34.036511
209,190671.0,Malibu Village,2021-06-02,E,ELEC,"['CHADEMO', 'J1772COMBO']",Electrify America,Public,24 hours daily,3822 Cross Creek Rd,Malibu,90265.0,CA,-118.68393,34.03606
210,53408.0,Torrance Marriott - South Bay,2013-03-19,E,ELEC,['J1772'],Non-Networked,Public,24 hours daily; for guest use only; pay parking,3635 Fashion Way,Torrance,90503.0,CA,-118.350231,33.835218
211,67701.0,Audi Pacific,2013-09-05,E,ELEC,['J1772'],Non-Networked,Public - Call ahead,Dealership business hours,20460 Hawthorne Ave,Torrance,90503.0,CA,-118.353057,33.845242
212,85958.0,Nissan of South Bay,2017-03-01,E,ELEC,"['CHADEMO', 'J1772']",Non-Networked,Public - Call ahead,Dealership business hours,20550 Hawthorne Blvd,Torrance,90503.0,CA,-118.353633,33.844065
213,113480.0,Torrance Marriott South Bay - Tesla Destination,2015-01-05,E,ELEC,['TESLA'],Tesla Destination,Public,,3635 Fashion Way,Torrance,90503.0,CA,-118.349995,33.835802
214,128243.0,Del Amo Fashion Center,2019-07-13,E,ELEC,"['CHADEMO', 'J1772COMBO']",Electrify America,Public,24 hours daily,3525 W Carson St.,Torrance,90503.0,CA,-118.34759,33.83162
215,151261.0,South Bay Village,2015-10-21,E,ELEC,['J1772'],Volta,Public,Mon 5:00am - 10:59pm; Tue 5:00am - 10:59pm; Wed 5:00am - 10:59pm; Thu 5:00am - 10:59pm; Fri 5:00am - 10:59pm; Sat 5:00am - 10:59pm; Sun 5:00am - 10:59pm,19330 Hawthorne Blvd,Torrance,90503.0,CA,-118.3528396,33.8550064
216,152830.0,Del Amo Fashion Center 01,2020-01-20,E,ELEC,['J1772'],Volta,Public,Mon 5:00am - 10:59pm; Tue 5:00am - 10:59pm; Wed 5:00am - 10:59pm; Thu 5:00am - 10:59pm; Fri 5:00am - 10:59pm; Sat 5:00am - 10:59pm; Sun 5:00am - 10:59pm,3525 W Carson St,Torrance,90503.0,CA,-118.3512765,33.8322356
217,152831.0,Del Amo Fashion Center 03,2020-01-20,E,ELEC,['J1772'],Volta,Public,Mon 5:00am - 10:59pm; Tue 5:00am - 10:59pm; Wed 5:00am - 10:59pm; Thu 5:00am - 10:59pm; Fri 5:00am - 10:59pm; Sat 5:00am - 10:59pm; Sun 5:00am - 10:59pm,3525 W Carson St,Torrance,90503.0,CA,-118.3513623,33.8324963
218,155053.0,Bobit Business Media,2018-08-31,E,ELEC,['J1772'],EV Connect,Private,24 hours daily; Also accepts Paypal,3520 Challenger St,Torrance,90503.0,CA,-118.3481124,33.8505282
219,158965.0,THE TORRANCE THE TORRANCE 3,2020-06-12,E,ELEC,['J1772'],ChargePoint Network,Public,24 hours daily,21250 Hawthorne Blvd,Torrance,90503.0,CA,-118.352535,33.836274
220,159520.0,PHS -SC PHSSC-1,2020-06-12,E,ELEC,['J1772'],ChargePoint Network,Public,24 hours daily,5225 Torrance Blvd,Torrance,90503.0,CA,-118.369333,33.839047
221,160004.0,SRH 4K 2,2020-06-12,E,ELEC,['J1772'],ChargePoint Network,Public,24 hours daily,20340 Hawthorne Blvd,Torrance,90503.0,CA,-118.353223,33.847783
222,160032.0,GANAHL LUMBER EV PUBLIC GL,2020-06-12,E,ELEC,['J1772'],ChargePoint Network,Public,24 hours daily,2600 Del Amo Blvd,Torrance,90503.0,CA,-118.333152,33.846816
223,160606.0,TORRANCE CIVIC CENTER DC,2020-06-12,E,ELEC,"['CHADEMO', 'J1772COMBO']",ChargePoint Network,Public,24 hours daily,3301 Torrance Blvd,Torrance,90503.0,CA,-118.343379,33.838315
224,160709.0,TORRANCE CIVIC CENTER 2,2020-06-12,E,ELEC,['J1772'],ChargePoint Network,Public,24 hours daily,3331 Torrance Blvd,Torrance,90503.0,CA,-118.343342,33.838405
225,160820.0,EVSP WALGREENS STORE 6251,2020-06-12,E,ELEC,['J1772'],ChargePoint Network,Public,24 hours daily,2976 Sepulveda Blvd,Torrance,90503.0,CA,-118.339633,33.823502
226,167176.0,DAC EV 2 STATION 3,2020-09-30,E,ELEC,['J1772'],ChargePoint Network,Public,24 hours daily,21535 Hawthorne Blvd,Torrance,90503.0,CA,-118.353127,33.832543
227,167177.0,DAC EV 2 STATION 1,2020-09-30,E,ELEC,['J1772'],ChargePoint Network,Public,24 hours daily,Unnamed Road,Torrance,90503.0,CA,-118.354135,33.832417
228,167581.0,McDonaldâ€™s,2020-10-12,E,ELEC,['J1772'],Non-Networked,Public,24 hours daily,5019 Torrance Blvd,Torrance,90503.0,CA,-118.367161,33.838075
229,176380.0,THE TORRANCE THE TORRANCE 4,2021-01-27,E,ELEC,['J1772'],ChargePoint Network,Public,24 hours daily,21250 Hawthorne Blvd,Torrance,90503.0,CA,-118.352517,33.836239
230,176381.0,THE TORRANCE THE TORRANCE 1,2021-01-27,E,ELEC,['J1772'],ChargePoint Network,Public,24 hours daily,21250 Hawthorne Blvd,Torrance,90503.0,CA,-118.352526,33.836182
231,176382.0,THE TORRANCE THE TORRANCE 2,2021-01-27,E,ELEC,['J1772'],ChargePoint Network,Public,24 hours daily,21250 Hawthorne Blvd,Torrance,90503.0,CA,-118.352516,33.836227
232,177513.0,PHS -SC PHSSC3,2021-01-27,E,ELEC,['J1772'],ChargePoint Network,Public,24 hours daily,5225 Torrance Blvd,Torrance,90503.0,CA,-118.369473,33.839047
233,177514.0,PHS -SC PHSSC2,2021-01-27,E,ELEC,['J1772'],ChargePoint Network,Public,24 hours daily,5225 Torrance Blvd,Torrance,90503.0,CA,-118.369525,33.839072
234,177515.0,PHS -SC PHSSC-4,2021-01-27,E,ELEC,['J1772'],ChargePoint Network,Public,24 hours daily,5225 Torrance Blvd,Torrance,90503.0,CA,-118.369459,33.839045
235,178353.0,GANAHL LUMBER EV EMP RT,2021-01-27,E,ELEC,['J1772'],ChargePoint Network,Public,24 hours daily,2600 Del Amo Blvd,Torrance,90503.0,CA,-118.333078,33.846659
236,179190.0,TORRANCE CIVIC CENTER 1,2021-01-27,E,ELEC,['J1772'],ChargePoint Network,Public,24 hours daily,3301 Torrance Blvd,Torrance,90503.0,CA,-118.343357,33.838359
237,181438.0,DAC EV 2 STATION 2,2021-01-27,E,ELEC,['J1772'],ChargePoint Network,Public,24 hours daily,21501 Hawthorne Blvd,Torrance,90503.0,CA,-118.354273,33.832861
238,183565.0,Del Amo Fashion Center - Tesla Supercharger,2021-01-25,E,ELEC,['TESLA'],Tesla,Public,24 hours daily; for Tesla use only,3490 Fashion Way,Torrance,90503.0,CA,-118.34842,33.834316
239,187303.0,SRH 4K 1,2021-04-10,E,ELEC,['J1772'],ChargePoint Network,Public,24 hours daily,20340 Hawthorne Blvd,Torrance,90503.0,CA,-118.353219,33.847835
240,207108.0,DJM CAPITAL STATION 1,2022-02-25,E,ELEC,['J1772'],ChargePoint Network,Public,24 hours daily,21305 Hawthorne Blvd,Torrance,90503.0,CA,-118.354517,33.835614
241,228555.0,Del Amo Fashion Center,2018-03-07,E,ELEC,"['CHADEMO', 'J1772', 'J1772COMBO']",eVgo Network,Public,24 hours daily,3525 W Carson St,Torrance,90503.0,CA,-118.34873,33.83393
242,253581.0,Del Amo Fashion Center,2023-02-08,E,ELEC,['J1772'],Volta,Public,Mon 5:00am - 10:59pm; Tue 5:00am - 10:59pm; Wed 5:00am - 10:59pm; Thu 5:00am - 10:59pm; Fri 5:00am - 10:59pm; Sat 5:00am - 10:59pm; Sun 5:00am - 10:59pm,3525 W Carson St,Torrance,90503.0,CA,-118.3513543,33.8323849
243,193132.0,HOLLYWOOD PARK MU4 BASEMENT 2,2021-07-24,E,ELEC,['J1772'],ChargePoint Network,Public,24 hours daily,900 District Dr,Inglewood,90305.0,CA,-118.341396,33.95199
244,193133.0,HOLLYWOOD PARK MU4 L1-02,2021-07-24,E,ELEC,['J1772'],ChargePoint Network,Public,24 hours daily,900 District Dr,Inglewood,90305.0,CA,-118.341439,33.951868
245,193134.0,HOLLYWOOD PARK MU4 L1-06,2021-07-24,E,ELEC,['J1772'],ChargePoint Network,Public,24 hours daily,900 District Dr,Inglewood,90305.0,CA,-118.341554,33.951997
246,193135.0,HOLLYWOOD PARK MU4 L1-04,2021-07-24,E,ELEC,['J1772'],ChargePoint Network,Public,24 hours daily,900 District Dr,Inglewood,90305.0,CA,-118.341557,33.952186
247,193136.0,HOLLYWOOD PARK MU4 L1-05,2021-07-24,E,ELEC,['J1772'],ChargePoint Network,Public,24 hours daily,900 District Dr,Inglewood,90305.0,CA,-118.341514,33.951965
248,193137.0,HOLLYWOOD PARK MU4 L1-03,2021-07-24,E,ELEC,['J1772'],ChargePoint Network,Public,24 hours daily,920 District  Drive,Inglewood,90305.0,CA,-118.341291,33.951925
249,193138.0,HOLLYWOOD PARK MU4 L1-01,2021-07-24,E,ELEC,['J1772'],ChargePoint Network,Public,24 hours daily,900 District Dr,Inglewood,90305.0,CA,-118.341463,33.951876
250,193139.0,HOLLYWOOD PARK MU4 L2-01,2021-07-24,E,ELEC,['J1772'],ChargePoint Network,Public,24 hours daily,900 District Dr,Inglewood,90305.0,CA,-118.341608,33.952059
251,193140.0,HOLLYWOOD PARK MU4 L2-02,2021-07-24,E,ELEC,['J1772'],ChargePoint Network,Public,24 hours daily,900 District Dr,Inglewood,90305.0,CA,-118.341449,33.952046
252,193235.0,HOLLYWOOD PARK MU4 BASEMENT 1,2021-07-28,E,ELEC,['J1772'],ChargePoint Network,Public,24 hours daily,900 District Dr,Inglewood,90305.0,CA,-118.341383,33.951855
253,154392.0,Monterey Park,2020-03-10,E,ELEC,"['CHADEMO', 'J1772COMBO']",SHELL_RECHARGE,Public,24 hours daily,"4100 Market Place Drive, Suite EV",Monterey Park,91755.0,CA,-118.098631,34.036283
254,21498.0,City of Glendora - City Hall,2002-04-30,E,ELEC,['J1772'],Non-Networked,Public,5am-2am daily,114 S Vista Bonita Ave,Glendora,91741.0,CA,-117.864,34.13556
255,153044.0,TRANSP CENTER TRANSP. CENTER,2020-01-25,E,ELEC,['J1772'],ChargePoint Network,Public,24 hours daily,410 E Dalton Ave,Glendora,91741.0,CA,-117.860846,34.136856
256,63064.0,Los Angeles County Sheriff - Temple City Station,2014-08-01,E,ELEC,['J1772'],POWERFLEX,Public,24 hours daily,8838 Las Tunas Dr,Temple City,91780.0,CA,-118.07617,34.103101
257,215031.0,TEMPLE CITY PRIMROSE 1,2022-04-27,E,ELEC,['J1772'],ChargePoint Network,Public,Mon 6:00am - 12:00am; Tue 6:00am - 12:00am; Wed 6:00am - 12:00am; Thu 6:00am - 12:00am; Fri 6:00am - 12:00am; Sat 6:00am - 12:00am; Sun 6:00am - 12:00am,5928 Primrose Ave,Temple City,91780.0,CA,-118.062434,34.107629
258,221386.0,TEMPLE CITY PRIMROSE 2,2022-06-16,E,ELEC,['J1772'],ChargePoint Network,Public,Mon 6:00am - 12:00am; Tue 6:00am - 12:00am; Wed 6:00am - 12:00am; Thu 6:00am - 12:00am; Fri 6:00am - 12:00am; Sat 6:00am - 12:00am; Sun 6:00am - 12:00am,5940 Primrose Ave,Temple City,91780.0,CA,-118.062289,34.107833
259,70675.0,US Hybrid Headquarters,2015-06-01,E,ELEC,"['J1772', 'J1772COMBO']",Non-Networked,Private,Available to the public after business hours; 5pm-8am,445 Maple Ave,Torrance,90501.0,CA,-118.340521,33.844753
260,94800.0,Omninet Park Del Amo,2017-01-30,E,ELEC,['J1772'],EV Connect,Public,,2355 Crenshaw Blvd.,Torrance,90501.0,CA,-118.329387,33.823662
261,160556.0,TORRANCE WILSON PARK L2,2020-06-12,E,ELEC,['J1772'],ChargePoint Network,Public,24 hours daily,2300-2376 Jefferson St,Torrance,90501.0,CA,-118.325302,33.827546
262,160570.0,TORRANCE POST L2,2020-06-12,E,ELEC,['J1772'],ChargePoint Network,Public,24 hours daily,1334 Post Ave,Torrance,90501.0,CA,-118.317104,33.834945
263,160823.0,EVSP WALGREENS STORE 7481,2020-06-12,E,ELEC,['J1772'],ChargePoint Network,Public,24 hours daily,22930 Western Ave,Torrance,90501.0,CA,-118.308506,33.817587
264,160855.0,AHM TORRANCE 100C-100D,2020-06-12,E,ELEC,['J1772'],ChargePoint Network,Public,24 hours daily,1919 Torrance Blvd,Torrance,90501.0,CA,-118.315244,33.837476
265,163623.0,1306 W Carson St,2020-06-25,E,ELEC,['J1772'],SHELL_RECHARGE,Public,24 hours daily,1306 W Carson St,"Torrance, CA",90501.0,CA,-118.300104,33.831436
266,179144.0,TORRANCE WILSON PARK DC,2021-01-27,E,ELEC,"['CHADEMO', 'J1772COMBO']",ChargePoint Network,Public,24 hours daily,2300-2376 Jefferson St,Torrance,90501.0,CA,-118.325232,33.82754
267,179163.0,TORRANCE POST DC,2021-01-27,E,ELEC,"['CHADEMO', 'J1772COMBO']",ChargePoint Network,Public,24 hours daily,1334 Post Ave,Torrance,90501.0,CA,-118.317018,33.834965
268,212595.0,HRAL VISITOR2,2022-03-24,E,ELEC,['J1772'],ChargePoint Network,Public,24 hours daily,1900 Harpers Way,Torrance,90501.0,CA,-118.314322,33.841192
269,212596.0,HRAL VISITOR1,2022-03-24,E,ELEC,['J1772'],ChargePoint Network,Public,24 hours daily,1900 Harpers Way,Torrance,90501.0,CA,-118.314321,33.841244
270,235094.0,South Bay Plaza,2022-10-25,E,ELEC,"['CHADEMO', 'J1772COMBO']",eVgo Network,Public,24 hours daily,2216 Sepulveda Blvd,Torrance,90501.0,CA,-118.32105,33.81971
271,252610.0,1640 W Carson St,2023-01-28,E,ELEC,['J1772'],FLO,Public,24 hours daily,1640 W Carson St,Torrance,90501.0,CA,-118.3079245,33.8313703
272,260460.0,1445 W 227th St,2023-05-06,E,ELEC,['J1772'],FLO,Public,24 hours daily,1445 W 227th St,Los Angeles,90501.0,CA,-118.3031753,33.82011768
273,63043.0,Los Angeles County Sheriff - Pitchess Detention Center,2014-08-01,E,ELEC,['J1772'],Non-Networked,Private,Employee use only,29320 Wayside Rd,Castaic,91384.0,CA,-118.586761,34.465239
274,69973.0,Castaic Lake RV Park,2016-06-29,E,ELEC,['J1772'],Non-Networked,Public,24 hours daily; Only Accepts EVRUS Card,31540 Ridge Route Rd,Castaic,91384.0,CA,-118.616811,34.491866
275,158950.0,DC CORRIDOR L2 CASTAIC,2020-06-12,E,ELEC,['J1772'],ChargePoint Network,Public,24 hours daily,27923 Sloan Canyon Rd,Castaic,91384.0,CA,-118.626024,34.496222
276,200752.0,DC CORRIDOR DC CASTAIC 2,2021-11-09,E,ELEC,"['CHADEMO', 'J1772COMBO']",ChargePoint Network,Public,24 hours daily,27923 Sloan Canyon Rd,Castaic,91384.0,CA,-118.626095,34.496218
277,200753.0,DC CORRIDOR DC CASTAIC 1,2021-11-09,E,ELEC,"['CHADEMO', 'J1772COMBO']",ChargePoint Network,Public,24 hours daily,27923 Sloan Canyon Rd,Castaic,91384.0,CA,-118.626065,34.496216
278,225843.0,Castaic Creek - Tesla Supercharger,2022-08-12,E,ELEC,['TESLA'],Tesla,Public,24 hours daily; for Tesla use only,29461 The Old Road,Castaic,91384.0,CA,-118.616132,34.452256
279,94778.0,Palmdale Oasis Park,2014-12-03,E,ELEC,['J1772'],EVCS,Public,Business hours,3850 East Ave S,Palmdale,93550.0,CA,-118.0593204649429,34.55648877197642
280,155913.0,City of Palmdale - Park and Ride,2020-03-25,E,ELEC,"['CHADEMO', 'J1772COMBO']",EVCS,Public - Credit card at all times,24 hours daily,210 East Ave S,Palmdale,93550.0,CA,-118.1290371,34.55742944
281,184808.0,Armstrong Flight Research Center,2021-01-15,E,ELEC,['NEMA515'],Non-Networked,Private - Government only,Drivers must bring their own J1772 cordset for Level 1 charging,2825 E Ave P,Palmdale,93550.0,CA,-118.07896,34.610387
282,212224.0,AVUHSD PALMDALE HS #1,2022-03-23,E,ELEC,['J1772'],ChargePoint Network,Public,24 hours daily,2137 E Ave R,Palmdale,93550.0,CA,-118.088359,34.57379
283,212225.0,AVUHSD PALMDALE HS #2,2022-03-23,E,ELEC,['J1772'],ChargePoint Network,Public,24 hours daily,2137 E Ave R,Palmdale,93550.0,CA,-118.088351,34.573586
284,223854.0,Palmdale Transportation Center,2019-01-28,E,ELEC,,WAVE,Private,Vehicles must have wireless charging capabilities,39000 Clock Tower Plaza Dr E,Palmdale,93550.0,CA,-118.12109,34.591465
285,235635.0,City of Palmdale,2022-11-03,T,ELEC,"['CHADEMO', 'J1772', 'J1772COMBO']",EV Connect,TEMPORARILY UNAVAILABLE (Public),,38250 Sierra Highway,Palmdale,93550.0,CA,-118.115651,34.577179
286,237069.0,Palmdale Metrolink Clock Tower,2022-11-29,E,ELEC,['J1772'],EVCS,Public,24 hours daily,39000 Clock Tower Plaza Dr E,Palmdale,93550.0,CA,-118.120310357793,34.5906501539693
287,63059.0,Los Angeles County Sheriff - Century Station,2014-08-01,E,ELEC,['J1772'],Non-Networked,Public,"Garage business hours; pay lot; keypad activated, instructions on EVSE",11703 S Alameda,Lynwood,90059.0,CA,-118.225363,33.928019
288,63737.0,Los Angeles County - Martin Luther King Hospital - Garage C,2021-08-20,E,ELEC,['J1772'],POWERFLEX,Public,24 hours daily,1720 E 120th St,Los Angeles,90059.0,CA,-118.240951,33.923781
289,76722.0,Los Angeles County - Martin Luther King Hospital - Garage,2020-08-11,E,ELEC,['J1772'],POWERFLEX,Public,24 hours daily,1670 E 120th St,Los Angeles,90059.0,CA,-118.240101,33.923391
290,102579.0,Los Angeles County - Martin Luther King Hospital - Garage Lot A,2018-07-10,E,ELEC,['J1772'],POWERFLEX,Private,Employee use only,1670 E 120th St,Los Angeles,90059.0,CA,-118.240604,33.922314
291,202984.0,Los Angeles Metro - Willowbrook Rosa Parks,2021-10-25,E,ELEC,['J1772'],EVGATEWAY,Public,24 hours daily; pay lot,11717 Wilmington Ave,Los Angeles,90059.0,CA,-118.239358,33.927004
292,221221.0,1848 E 112th St,2022-06-11,E,ELEC,['J1772'],FLO,Public,24 hours daily,1848 E 112th St,Los Angeles,90059.0,CA,-118.2393536,33.93343834
293,143935.0,2829 N FIGUEROA ST,2019-08-21,E,ELEC,['J1772'],SHELL_RECHARGE,Public,24 hours daily,2829 N FIGUEROA ST,Los Angeles,90065.0,CA,-118.220984,34.085127
294,143937.0,3622 N EAGLE ROCK BLVD,2019-08-21,T,ELEC,['J1772'],SHELL_RECHARGE,TEMPORARILY UNAVAILABLE (Public),24 hours daily,3622 N EAGLE ROCK BLVD,Los Angeles,90065.0,CA,-118.234489,34.116977
295,217296.0,3098 Fletcher Dr,2022-05-10,E,ELEC,['J1772'],FLO,Public,24 hours daily,3098 Fletcher Dr,Los Angeles,90065.0,CA,-118.2438757,34.11611846
296,226725.0,The Perch Apartments,2022-08-30,E,ELEC,['J1772'],Blink Network,Public,,4247 Eagle Rock Blvd,Los Angeles,90065.0,CA,-118.224034,34.123196
297,39875.0,Cerritos Nissan,2011-03-15,E,ELEC,"['CHADEMO', 'J1772', 'J1772COMBO']",Non-Networked,Public - Call ahead,Dealership business hours,18707 Studebaker Rd,Cerritos,90703.0,CA,-118.100471,33.861544
298,47595.0,Cerritos Nissan,2011-03-15,E,ELEC,['J1772'],Non-Networked,Private,,18707 Studebaker Rd,Cerritos,90703.0,CA,-118.100471,33.861544
299,60238.0,Penske Chevrolet of Cerritos,2014-02-01,E,ELEC,"['J1772', 'NEMA520']",Non-Networked,Private,Service center use only,18605 Studebaker Rd,Cerritos,90703.0,CA,-118.099976,33.861596
300,99019.0,Cerritos Performing Arts Ctr,2015-10-01,E,ELEC,['J1772'],SHELL_RECHARGE,Public,24 hours daily,12700 Center Court Drive,Cerritos,90703.0,CA,-118.06171,33.867627
301,124691.0,City Of Cerritos,2019-06-26,E,ELEC,['J1772'],Blink Network,Public,,18125 Bloomfield Ave,Cerritos,90703.0,CA,-118.065818,33.867184
302,159421.0,EOP CERRITOS STATION 1,2020-06-12,E,ELEC,['J1772'],ChargePoint Network,Public,24 hours daily,17777 center court dr,Cerritos,90703.0,CA,-118.061691,33.869639
303,166862.0,Los Cerritos Center - Tesla Supercharger,2020-09-10,E,ELEC,['TESLA'],Tesla,Public,24 hours daily; for Tesla use only,239 Los Cerritos Center,Cerritos,90703.0,CA,-118.091532,33.864724
304,195382.0,Kaiser - Cerritos MOB,2019-07-31,E,ELEC,['J1772'],SemaCharge Network,Public,,10820 183rd Street,Cerritos,90703.0,CA,-118.103016,33.865044
305,205064.0,NRHYUNDAI STATION 1,2022-01-20,E,ELEC,"['CHADEMO', 'J1772COMBO']",ChargePoint Network,Public,24 hours daily,10907 183rd St,Cerritos,90703.0,CA,-118.101503,33.866238
306,205065.0,NRHYUNDAI STATION 2,2022-01-20,E,ELEC,"['CHADEMO', 'J1772COMBO']",ChargePoint Network,Public,24 hours daily,10901 183rd St,Cerritos,90703.0,CA,-118.101534,33.866238
307,212336.0,Landmark Square Cerritos,2021-11-17,E,ELEC,['J1772'],Volta,Public,Mon 5:00am - 10:59pm; Tue 5:00am - 10:59pm; Wed 5:00am - 10:59pm; Thu 5:00am - 10:59pm; Fri 5:00am - 10:59pm; Sat 5:00am - 10:59pm; Sun 5:00am - 10:59pm,11340 South Street,Cerritos,90703.0,CA,-118.09198,33.8575925
308,221603.0,CERRITOS STATION 3,2022-06-22,E,ELEC,['J1772'],ChargePoint Network,Public,24 hours daily,12900 Park Plaza Dr,Cerritos,90703.0,CA,-118.05708,33.867393
309,221604.0,CERRITOS STATION 4,2022-06-22,T,ELEC,['J1772'],ChargePoint Network,TEMPORARILY UNAVAILABLE (Public),24 hours daily,12900 Park Plaza Dr,Cerritos,90703.0,CA,-118.056984,33.86733
310,221605.0,CERRITOS STATION 2,2022-06-22,E,ELEC,['J1772'],ChargePoint Network,Public,24 hours daily,12900 Park Plaza Dr,Cerritos,90703.0,CA,-118.05692,33.867348
311,221606.0,CERRITOS STATION 1,2022-06-22,E,ELEC,['J1772'],ChargePoint Network,Public,24 hours daily,12900 Park Plaza Dr,Cerritos,90703.0,CA,-118.056984,33.867437
312,221904.0,CERRITOS STATION 9,2022-06-23,E,ELEC,['J1772'],ChargePoint Network,Public,24 hours daily,12900 Park Plaza Dr,Cerritos,90703.0,CA,-118.057091,33.86717
313,221905.0,CERRITOS STATION 8,2022-06-23,E,ELEC,['J1772'],ChargePoint Network,Public,24 hours daily,12900 Park Plaza Dr,Cerritos,90703.0,CA,-118.057198,33.867268
314,221906.0,CERRITOS STATION 7,2022-06-23,E,ELEC,['J1772'],ChargePoint Network,Public,24 hours daily,12900 Park Plaza Dr,Cerritos,90703.0,CA,-118.056984,33.867188
315,221907.0,CERRITOS STATION 6,2022-06-23,E,ELEC,['J1772'],ChargePoint Network,Public,24 hours daily,12900 Park Plaza Dr,Cerritos,90703.0,CA,-118.056952,33.867241
316,221908.0,CERRITOS STATION 5,2022-06-23,E,ELEC,['J1772'],ChargePoint Network,Public,24 hours daily,12900 Park Plaza Dr,Cerritos,90703.0,CA,-118.05707,33.867286
317,221909.0,CERRITOS STATION 10,2022-06-23,E,ELEC,['J1772'],ChargePoint Network,Public,24 hours daily,12900 Park Plaza Dr,Cerritos,90703.0,CA,-118.057295,33.867509
318,221981.0,CERRITOS STATION 11,2022-06-25,E,ELEC,['J1772'],ChargePoint Network,Public,24 hours daily,12900 Park Plaza Dr,Cerritos,90703.0,CA,-118.056844,33.867188
319,223597.0,Penske Chevrolet of Cerritos,2021-01-01,E,ELEC,"['CHADEMO', 'J1772COMBO']",Non-Networked,Private,Service use only,18605 Studebaker Rd,Cerritos,90703.0,CA,-118.099976,33.861596
320,228287.0,Los Cerritos Center,2014-06-04,E,ELEC,"['CHADEMO', 'J1772COMBO']",eVgo Network,Public,24 hours daily,200 Los Cerritos Mall,Cerritos,90703.0,CA,-118.096201,33.863097
321,205630.0,CITY OF LOMITA STATION 1,2022-01-30,E,ELEC,['J1772'],ChargePoint Network,Public,Mon 7:30am - 5:30pm; Tue 7:30am - 5:30pm; Wed 7:30am - 5:30pm; Thu 7:30am - 5:30pm; Fri 8:00am - 5:00pm; Sat 12:00pm - 4:00pm,24300 Narbonne Ave,Lomita,90717.0,CA,-118.318879,33.804686
322,205631.0,CITY OF LOMITA STATION 2,2022-01-30,E,ELEC,['J1772'],ChargePoint Network,Public,Mon 7:30am - 5:30pm; Tue 7:30am - 5:30pm; Wed 7:30am - 5:30pm; Thu 7:30am - 5:30pm; Fri 8:00am - 5:00pm,24300 Narbonne Ave,Lomita,90717.0,CA,-118.318886,33.804636
323,205641.0,Los Angeles County Sheriff- Lomita,2021-12-10,E,ELEC,['J1772'],POWERFLEX,Public,24 hours daily,26123 Narbonne Ave,Lomita,90717.0,CA,-118.3211,33.785919
324,221010.0,1422 W Lomita Blvd,2022-06-09,E,ELEC,['J1772'],FLO,Public,24 hours daily,1422 W Lomita Blvd,Los Angeles,90717.0,CA,-118.3020608,33.79770011
325,113088.0,The Westin Bonaventure Hotel & Suites - Tesla Destination,2015-08-10,E,ELEC,['TESLA'],Tesla Destination,Public,,404 S Figueroa St,Los Angeles,90071.0,CA,-118.255408,34.052495
326,113091.0,"The Standard, Downtown LA - Tesla Destination",2016-12-02,E,ELEC,"['J1772', 'TESLA']",Tesla Destination,Public,,550 S Flower St,Los Angeles,90071.0,CA,-118.257063,34.050184
327,158791.0,BROOKFIELD WEST 333 S HOPE EV3,2020-06-12,E,ELEC,['J1772'],ChargePoint Network,Public,24 hours daily,333 S. Hope St,Los Angeles,90071.0,CA,-118.253931,34.052952
328,158984.0,BROOKFIELD WEST 601 S FIG 9-10,2020-06-12,T,ELEC,['J1772'],ChargePoint Network,TEMPORARILY UNAVAILABLE (Public),24 hours daily,601 S Figueroa St,Los Angeles,90071.0,CA,-118.259147,34.050967
329,159111.0,CITYNATNL PLAZA J2 #3,2020-06-12,E,ELEC,['J1772'],ChargePoint Network,Public,24 hours daily,401 S Hope St,Los Angeles,90071.0,CA,-118.254273,34.052402
330,159112.0,CITYNATNL PLAZA ALVL #2,2020-06-12,E,ELEC,['J1772'],ChargePoint Network,Public,24 hours daily,520 S Flower St,Los Angeles,90071.0,CA,-118.256314,34.05114
331,159180.0,CITYNATNL PLAZA CLVL #9,2020-06-12,E,ELEC,['J1772'],ChargePoint Network,Public,24 hours daily,515 S Flower St,Los Angeles,90071.0,CA,-118.256731,34.051216
332,159431.0,JOHN HANCOCK 515 FIGUEROA 1,2020-06-12,E,ELEC,['J1772'],ChargePoint Network,Public,24 hours daily,515 S Figueroa St,Los Angeles,90071.0,CA,-118.258012,34.052255
333,159675.0,CITYNATNL PLAZA J2 #4,2020-06-12,E,ELEC,['J1772'],ChargePoint Network,Public,24 hours daily,400 S Flower St,Los Angeles,90071.0,CA,-118.254763,34.052194
334,160293.0,CITYNATNL PLAZA J2 #11,2020-06-12,E,ELEC,['J1772'],ChargePoint Network,Public,24 hours daily,515 Flower St,Los Angeles,90071.0,CA,-118.25694,34.051401
335,160364.0,BROOKFIELD WEST WFC 355 P4 01,2020-06-12,E,ELEC,['J1772'],ChargePoint Network,Public,24 hours daily,355 S. Grand Ave,Los Angeles,90071.0,CA,-118.252926,34.052515
336,160377.0,BROOKFIELD WEST WFC 333 P4 01,2020-06-12,E,ELEC,['J1772'],ChargePoint Network,Public,24 hours daily,333 S Grand Ave,Los Angeles,90071.0,CA,-118.252241,34.053225
337,160401.0,KPMG KPMG 4,2020-06-12,E,ELEC,['J1772'],ChargePoint Network,Public,24 hours daily,550 S Hope St,Los Angeles,90071.0,CA,-118.25565,34.049722
338,160734.0,BROOKFIELD WEST WFC 333 P3 01,2020-06-12,E,ELEC,['J1772'],ChargePoint Network,Public,24 hours daily,330 S Grand Ave,Los Angeles,90071.0,CA,-118.252277,34.053243
339,160744.0,CIM DC FAST CHARGER,2020-06-12,E,ELEC,['J1772COMBO'],ChargePoint Network,Public,24 hours daily,350 S Grand Ave,Los Angeles,90071.0,CA,-118.251362,34.051254
340,161214.0,US BANK TOWER STATION 1,2020-06-12,E,ELEC,['J1772'],ChargePoint Network,Public,24 hours daily,633 W 5th St,Los Angeles,90071.0,CA,-118.254738,34.050739
341,168899.0,Jonathan Club - Tesla Destination,2018-02-20,E,ELEC,['TESLA'],Tesla Destination,Public,,545 S Figueroa St,Los Angeles,90071.0,CA,-118.258508,34.051539
342,176744.0,CITYNATNL PLAZA CLVL #13,2021-01-27,E,ELEC,['J1772'],ChargePoint Network,Public,24 hours daily,515 S Flower St,Los Angeles,90071.0,CA,-118.257021,34.051599
343,176745.0,CITYNATNL PLAZA CLVL #14,2021-01-27,E,ELEC,['J1772'],ChargePoint Network,Public,24 hours daily,515 S Flower St,Los Angeles,90071.0,CA,-118.257008,34.051589
344,176746.0,CITYNATNL PLAZA CLVL #12,2021-01-27,E,ELEC,['J1772'],ChargePoint Network,Public,24 hours daily,515 S Flower St,Los Angeles,90071.0,CA,-118.256993,34.05158
345,176747.0,CITYNATNL PLAZA ALVL #1,2021-01-27,E,ELEC,['J1772'],ChargePoint Network,Public,24 hours daily,515 S Flower St,Los Angeles,90071.0,CA,-118.257042,34.051355
346,177308.0,JOHN HANCOCK 515 FIGUEROA 3,2021-01-27,E,ELEC,['J1772'],ChargePoint Network,Public,24 hours daily,515 S Figueroa St,Los Angeles,90071.0,CA,-118.25795,34.052197
347,177309.0,JOHN HANCOCK 515 FIGUEROA 4,2021-01-27,E,ELEC,['J1772'],ChargePoint Network,Public,24 hours daily,515 S Figueroa St,Los Angeles,90071.0,CA,-118.258053,34.052119
348,177782.0,CITYNATNL PLAZA J2 #5,2021-01-27,E,ELEC,['J1772'],ChargePoint Network,Public,24 hours daily,400 S Flower St,Los Angeles,90071.0,CA,-118.254742,34.052172
349,177783.0,CITYNATNL PLAZA J2 #8,2021-01-27,T,ELEC,['J1772'],ChargePoint Network,TEMPORARILY UNAVAILABLE (Public),24 hours daily,400 S Flower St,Los Angeles,90071.0,CA,-118.254654,34.052151
350,177784.0,CITYNATNL PLAZA J2 #6,2021-01-27,T,ELEC,['J1772'],ChargePoint Network,TEMPORARILY UNAVAILABLE (Public),24 hours daily,400 S Flower St,Los Angeles,90071.0,CA,-118.254738,34.052151
351,177785.0,CITYNATNL PLAZA J2 #7,2021-01-27,T,ELEC,['J1772'],ChargePoint Network,TEMPORARILY UNAVAILABLE (Public),24 hours daily,400 S Flower St,Los Angeles,90071.0,CA,-118.254707,34.052135
352,177786.0,CITYNATNL PLAZA CLVL #10,2021-01-27,E,ELEC,['J1772'],ChargePoint Network,Public,24 hours daily,400 S Flower St,Los Angeles,90071.0,CA,-118.254738,34.052169
353,178585.0,BROOKFIELD WEST 333 S HOPE EV9,2021-01-27,E,ELEC,['J1772'],ChargePoint Network,Public,24 hours daily,333 S Hope St,Los Angeles,90071.0,CA,-118.253235,34.053897
354,178832.0,BROOKFIELD WEST WFC 355 P3 02,2021-01-27,E,ELEC,['J1772'],ChargePoint Network,Public,24 hours daily,355 S Grand Ave,Los Angeles,90071.0,CA,-118.252966,34.052541
355,178833.0,BROOKFIELD WEST WFC 355 P4 02,2021-01-27,E,ELEC,['J1772'],ChargePoint Network,Public,24 hours daily,355 S Grand Ave,Los Angeles,90071.0,CA,-118.252886,34.052572
356,178846.0,BROOKFIELD WEST WFC 333 P4 02,2021-01-27,E,ELEC,['J1772'],ChargePoint Network,Public,24 hours daily,333 S Grand Ave,Los Angeles,90071.0,CA,-118.252217,34.053259
357,178884.0,KPMG KPMG 3,2021-01-27,E,ELEC,['J1772'],ChargePoint Network,Public,24 hours daily,550 S Hope St,Los Angeles,90071.0,CA,-118.256005,34.049646
358,178885.0,KPMG KPMG 2,2021-01-27,E,ELEC,['J1772'],ChargePoint Network,Public,24 hours daily,550 S Hope St,Los Angeles,90071.0,CA,-118.256058,34.049732
359,179634.0,US BANK TOWER STATION 2,2021-01-27,E,ELEC,['J1772'],ChargePoint Network,Public,24 hours daily,633 W 5th St,Los Angeles,90071.0,CA,-118.254592,34.050909
360,179635.0,WESTLAWN STATION 1,2021-01-27,E,ELEC,['J1772'],ChargePoint Network,Public,24 hours daily,633 W 5th St,Los Angeles,90071.0,CA,-118.254436,34.051038
361,182484.0,BROOKFIELD WEST WFC 333 P1 01,2021-01-27,E,ELEC,['J1772'],ChargePoint Network,Public,Sat 12:00am - 12:00am; Sun 12:00am - 12:00am,333 S. Grand Ave.,Los Angeles,90071.0,CA,-118.252134,34.053318
362,182698.0,BROOKFIELD WEST WFC 333 P1 03,2021-01-27,E,ELEC,['J1772'],ChargePoint Network,Public,Sat 12:00am - 12:00am; Sun 12:00am - 12:00am,400-798 W 3rd St,Los Angeles,90071.0,CA,-118.252159,34.053239
363,182699.0,BROOKFIELD WEST WFC 355 P1 02,2021-01-27,E,ELEC,['J1772'],ChargePoint Network,Public,Sat 12:00am - 12:00am; Sun 12:00am - 12:00am,355 S Grand Ave,Los Angeles,90071.0,CA,-118.252948,34.052289
364,182700.0,BROOKFIELD WEST WFC 355 P1 03,2021-01-27,E,ELEC,['J1772'],ChargePoint Network,Public,Sat 12:00am - 12:00am; Sun 12:00am - 12:00am,355 S Grand Ave,Los Angeles,90071.0,CA,-118.252972,34.052263
365,182704.0,BROOKFIELD WEST WFC 333 P1 02,2021-01-27,E,ELEC,['J1772'],ChargePoint Network,Public,Sat 12:00am - 12:00am; Sun 12:00am - 12:00am,400-798 W 3rd St,Los Angeles,90071.0,CA,-118.252142,34.053257
366,182705.0,BROOKFIELD WEST WFC 355 P1 01,2021-01-27,E,ELEC,['J1772'],ChargePoint Network,Public,Sat 12:00am - 12:00am; Sun 12:00am - 12:00am,355 S Grand Ave,Los Angeles,90071.0,CA,-118.252926,34.052313
367,185669.0,JOHN HANCOCK 515 FIGUEROA 2,2021-03-07,E,ELEC,['J1772'],ChargePoint Network,Public,24 hours daily,515 S Figueroa St,Los Angeles,90071.0,CA,-118.257897,34.05217
368,203011.0,ONE CAL PLAZA P2 05,2021-12-24,E,ELEC,['J1772'],ChargePoint Network,Public,24 hours daily,300 S Grand Ave,Los Angeles,90071.0,CA,-118.251491,34.052598
369,203012.0,ONE CAL PLAZA P1 01,2021-12-24,E,ELEC,['J1772'],ChargePoint Network,Public,24 hours daily,300 S Grand Ave,Los Angeles,90071.0,CA,-118.251503,34.052508
370,203013.0,ONE CAL PLAZA P1 02,2021-12-24,E,ELEC,['J1772'],ChargePoint Network,Public,24 hours daily,300 S Grand Ave,Los Angeles,90071.0,CA,-118.251477,34.052535
371,203014.0,ONE CAL PLAZA P1 03,2021-12-24,E,ELEC,['J1772'],ChargePoint Network,Public,24 hours daily,300 S Grand Ave,Los Angeles,90071.0,CA,-118.251456,34.052562
372,203015.0,ONE CAL PLAZA P1 04,2021-12-24,E,ELEC,['J1772'],ChargePoint Network,Public,24 hours daily,300 S Grand Ave,Los Angeles,90071.0,CA,-118.251437,34.052583
373,203016.0,ONE CAL PLAZA P5 06,2021-12-24,E,ELEC,['J1772'],ChargePoint Network,Public,24 hours daily,300 S Grand Ave,Los Angeles,90071.0,CA,-118.251507,34.052626
374,226708.0,ONE CAL PLAZA P1 07,2022-08-30,E,ELEC,['J1772'],ChargePoint Network,Public,24 hours daily,300 S Grand Ave,Los Angeles,90071.0,CA,-118.250755,34.052376
375,252959.0,BROOKFIELD WEST 333 S HOPE EV2,2023-02-01,E,ELEC,['J1772'],ChargePoint Network,Public,24 hours daily,333 S Hope St,Los Angeles,90071.0,CA,-118.253949,34.052937
376,252960.0,BROOKFIELD WEST 333 S HOPE EV4,2023-02-01,E,ELEC,['J1772'],ChargePoint Network,Public,24 hours daily,333 S Hope St,Los Angeles,90071.0,CA,-118.253912,34.052971
377,253347.0,BROOKFIELD WEST 333 S HOPE EV5,2023-02-03,E,ELEC,['J1772'],ChargePoint Network,Public,24 hours daily,333 S Hope St,Los Angeles,90071.0,CA,-118.253395,34.053616
378,253349.0,BROOKFIELD WEST 333 S HOPE EV7,2023-02-03,E,ELEC,['J1772'],ChargePoint Network,Public,24 hours daily,333 S Hope St,Los Angeles,90071.0,CA,-118.25336,34.05349
379,256202.0,Jonathan Club,2023-03-10,E,ELEC,['J1772'],Blink Network,Public,,545 S. Figueroa Street,Los Angeles,90071.0,CA,-118.258522,34.051556
380,258937.0,KPMG KPMG STATION 1,2023-04-11,E,ELEC,['J1772'],ChargePoint Network,Public,24 hours daily,550 S Hope St,Los Angeles,90071.0,CA,-118.255666,34.049867
381,113001.0,The Gardens Casino - Tesla Destination,2017-08-07,E,ELEC,['TESLA'],Tesla Destination,Public,,11871 Carson St,Hawaiian Gardens,90716.0,CA,-118.079218,33.832254
382,96475.0,Tennessee Lofts HOA,2017-08-18,E,ELEC,['J1772'],Blink Network,Public,,11500 Tennessee Ave.,Los Angeles,90064.0,CA,-118.44268,34.034366
383,103607.0,4519 Pico Blvd,2018-09-27,E,ELEC,['J1772'],SHELL_RECHARGE,Public,24 hours daily,4519 Pico Blvd,Los Angeles,90064.0,CA,-118.334337,34.048617
384,103611.0,10875 Pico Blvd,2018-09-27,E,ELEC,['J1772'],SHELL_RECHARGE,Public,24 hours daily,10875 Pico Blvd,Los Angeles,90064.0,CA,-118.429085,34.039996
385,123164.0,Los Angeles Metro - Expo Sepulveda Station,2019-04-01,E,ELEC,['J1772'],EVGATEWAY,Public,24 hours daily,11295 Exposition Blvd,Los Angeles,90064.0,CA,-118.437913,34.0345678
386,148799.0,Main Location,2011-11-28,E,ELEC,['J1772'],SemaCharge Network,Public,,11390 W Olympic Blvd.,Los Angeles,90064.0,CA,-118.442604,34.036977
387,152835.0,One Westside Pet Smart,2020-01-20,E,ELEC,['J1772'],Volta,Public,Mon 5:00am - 10:59pm; Tue 5:00am - 10:59pm; Wed 5:00am - 10:59pm; Thu 5:00am - 10:59pm; Fri 5:00am - 10:59pm; Sat 5:00am - 10:59pm; Sun 5:00am - 10:59pm,11250 West Olympic Blvd,Los Angeles,90064.0,CA,-118.4402325,34.0379015
388,152904.0,11730 National Blvd,2020-01-23,E,ELEC,['J1772'],FLO,Public,24 hours daily,11730 National Blvd,Los Angeles,90064.0,CA,-118.4395624,34.0220774
389,152905.0,10928 W Pico Blvd,2020-01-23,E,ELEC,['J1772'],FLO,Public,24 hours daily,10928 W Pico Blvd,Los Angeles,90064.0,CA,-118.430493,34.039067
390,153570.0,2900 S Sepulveda Blvd,2020-02-08,E,ELEC,['J1772'],FLO,Public,24 hours daily,2900 S Sepulveda Blvd,Los Angeles,90064.0,CA,-118.429273,34.02850208
391,159244.0,IRVINE  CO  OFC FOX PLAZA PS 09,2020-06-12,E,ELEC,['J1772'],ChargePoint Network,Public,24 hours daily,2121 Avenue of the Stars,Los Angeles,90064.0,CA,-118.414349,34.054173
392,159249.0,IRVINE  CO  OFC FOX PLAZA PS 08,2020-06-12,E,ELEC,['J1772'],ChargePoint Network,Public,24 hours daily,2121 Avenue of the Stars,Los Angeles,90064.0,CA,-118.414365,34.054149
393,160600.0,KILROY REALTY TRIBECA P1 02,2020-06-12,E,ELEC,['J1772'],ChargePoint Network,Public,24 hours daily,12233 W Olympic Blvd,Los Angeles,90064.0,CA,-118.456879,34.032751
394,160853.0,2999 OVERLAND STATION 1,2020-06-12,E,ELEC,['J1772'],ChargePoint Network,Public,24 hours daily,2999 Overland Ave,Los Angeles,90064.0,CA,-118.418407,34.032596
395,163413.0,2431 S Sepulveda Blvd,2020-06-16,E,ELEC,['J1772'],SHELL_RECHARGE,Public,24 hours daily,2431 S Sepulveda Blvd,Los Angeles,90064.0,CA,-118.434854,34.036431
396,167495.0,2212 Sawtelle Blvd,2020-10-13,T,ELEC,['J1772'],SHELL_RECHARGE,TEMPORARILY UNAVAILABLE (Public),24 hours daily,2212 Sawtelle Blvd,Los Angeles,90064.0,CA,-118.440936,34.03763
397,169229.0,UGP - Tesla Destination,2018-04-11,E,ELEC,['TESLA'],Tesla Destination,Public,,2240 S. Sepulveda Blvd,Los Angeles,90064.0,CA,-118.436732,34.039223
398,176909.0,IRVINE  CO  OFC FOX PLAZA PS 07,2021-01-27,E,ELEC,['J1772'],ChargePoint Network,Public,24 hours daily,2121 Avenue of the Stars,Los Angeles,90064.0,CA,-118.414093,34.05425
399,179188.0,KILROY REALTY TRIBECA P1 01,2021-01-27,T,ELEC,['J1772'],ChargePoint Network,TEMPORARILY UNAVAILABLE (Public),24 hours daily,12233 W Olympic Blvd,Los Angeles,90064.0,CA,-118.456898,34.032732
400,220271.0,2225 S Barrington Ave,2022-05-27,E,ELEC,['J1772'],FLO,Public,24 hours daily,2225 S Barrington Ave,Los Angeles,90064.0,CA,-118.4472366,34.03365231
401,220275.0,2609 S Barrington Ave,2022-05-27,E,ELEC,['J1772'],FLO,Public,24 hours daily,2609 S Barrington Ave,Los Angeles,90064.0,CA,-118.4421559,34.0272045
402,227795.0,SPACE SPACE #16,2022-09-18,E,ELEC,['J1772'],ChargePoint Network,Public,24 hours daily,11671 National Blvd,Los Angeles,90064.0,CA,-118.438065,34.02323
403,227796.0,SPACE SPACE #25,2022-09-18,E,ELEC,['J1772'],ChargePoint Network,Public,24 hours daily,11671 National Blvd,Los Angeles,90064.0,CA,-118.438124,34.023212
404,227797.0,SPACE SPACE #26,2022-09-18,E,ELEC,['J1772'],ChargePoint Network,Public,24 hours daily,11671 National Blvd,Los Angeles,90064.0,CA,-118.438167,34.023194
405,227798.0,SPACE SPACE #60,2022-09-18,E,ELEC,['J1772'],ChargePoint Network,Public,24 hours daily,11671 National Blvd,Los Angeles,90064.0,CA,-118.438261,34.023097
406,227799.0,SPACE SPACE #61,2022-09-18,E,ELEC,['J1772'],ChargePoint Network,Public,24 hours daily,11671 National Blvd,Los Angeles,90064.0,CA,-118.438296,34.023143
407,227800.0,SPACE SPACE #66,2022-09-18,E,ELEC,['J1772'],ChargePoint Network,Public,24 hours daily,11671 National Blvd,Los Angeles,90064.0,CA,-118.43832,34.023186
408,227801.0,SPACE SPACE #71,2022-09-18,E,ELEC,['J1772'],ChargePoint Network,Public,24 hours daily,11671 National Blvd,Los Angeles,90064.0,CA,-118.438317,34.023119
409,227802.0,SPACE SPACE #73,2022-09-18,E,ELEC,['J1772'],ChargePoint Network,Public,24 hours daily,11671 National Blvd,Los Angeles,90064.0,CA,-118.43834,34.023163
410,235394.0,City of LA Lot 715,2022-10-20,E,ELEC,"['CHADEMO', 'J1772COMBO']",EVCS,Public,24 hours daily,2371 Overland Ave,Los Angeles,90064.0,CA,-118.425344148502,34.0422253545223
411,237643.0,Trident Center Parking Garage - Tesla Supercharger,2022-11-18,E,ELEC,['TESLA'],Tesla,Public,24 hours daily,11355 W Olympic Blvd,Los Angeles,90064.0,CA,-118.443301,34.03818
412,241235.0,"FOX STUDIO LOT 100, P1:141-142",2023-01-06,E,ELEC,['J1772'],ChargePoint Network,Public,24 hours daily,10201 West Pico Blvd,Los Angeles,90064.0,CA,-118.411263,34.05213
413,241252.0,"FOX STUDIO LOT 100, P1:140-139",2023-01-06,T,ELEC,['J1772'],ChargePoint Network,TEMPORARILY UNAVAILABLE (Public),24 hours daily,10201 W Pico Blvd,Los Angeles,90064.0,CA,-118.410111,34.050922
414,253670.0,One Westside Marshalls,2023-02-08,E,ELEC,['J1772'],Volta,Public,Mon 5:00am - 10:59pm; Tue 5:00am - 10:59pm; Wed 5:00am - 10:59pm; Thu 5:00am - 10:59pm; Fri 5:00am - 10:59pm; Sat 5:00am - 10:59pm; Sun 5:00am - 10:59pm,11250 West Olympic Blvd,Los Angeles,90064.0,CA,-118.4404105,34.0379155
415,1517.0,LADWP - Truesdale Center,1999-10-15,E,ELEC,"['CHADEMO', 'J1772', 'J1772COMBO']",Non-Networked,Private,Fleet use only,11797 Truesdale St,Sun Valley,91352.0,CA,-118.3879713743439,34.2483191527193
416,33183.0,LADWP - Valley Generating Station,1999-10-15,E,ELEC,['J1772'],Non-Networked,Private,Fleet and employee use only,11801 Sheldon St,Sun Valley,91352.0,CA,-118.390147,34.241928
417,99238.0,Sun Valley,2018-06-14,E,ELEC,['J1772'],SHELL_RECHARGE,Public,24 hours daily,7935 Vineland Ave.,Sun Valley,91352.0,CA,-118.370958,34.215022
418,103789.0,LADWP - Tuxford Street,2019-12-20,E,ELEC,['J1772'],Non-Networked,Public,24 hours daily,11571 Tuxford St,Sun Valley,91352.0,CA,-118.384372,34.225334
419,145600.0,8268 N SUNLAND BLVD,2019-09-27,E,ELEC,['J1772'],SHELL_RECHARGE,Public,24 hours daily,8268 N SUNLAND BLVD,Los Angeles,91352.0,CA,-118.367473,34.220769
420,152367.0,12519 W ROSCOE BLVD,2020-01-10,E,ELEC,['J1772'],SHELL_RECHARGE,Public,24 hours daily,12519 W ROSCOE BLVD,Los Angeles,91352.0,CA,-118.40576,34.221774
421,156166.0,10654 Vinedale St,2020-05-09,E,ELEC,['J1772'],SHELL_RECHARGE,Public,24 hours daily,10654 Vinedale St,Los Angeles,91352.0,CA,-118.36348,34.228731
422,158605.0,11121 Arminta St,2020-06-10,E,ELEC,['J1772'],SHELL_RECHARGE,Public,24 hours daily,11121 Arminta St,Sun Valley,91352.0,CA,-118.373347,34.213932
423,158608.0,8124 Ratner St,2020-06-10,E,ELEC,['J1772'],SHELL_RECHARGE,Public,24 hours daily,8124 Ratner St,Sun Valley,91352.0,CA,-118.36853,34.217851
424,221462.0,8700 Glenoaks Blvd,2022-06-17,E,ELEC,['J1772'],FLO,Public,24 hours daily,8700 Glenoaks Blvd,Los Angeles,91352.0,CA,-118.3639628,34.22708858
425,94801.0,Office Building,2017-09-27,E,ELEC,['J1772'],EV Connect,Private,Employee use only,2503 Vernon Ave,Vernon,90058.0,CA,-118.22871,34.005461
426,123189.0,CRL Manufacturing,2019-04-01,E,ELEC,['J1772'],EV Connect,Private,,2100 E 38th St,Vernon,90058.0,CA,-118.2357663,34.007216
427,166654.0,Independent Electric Vehicles,2018-12-23,E,ELEC,['J1772'],EV Connect,Private,Also accepts Paypal,5001 S Soto St,Vernon,90058.0,CA,-118.2196046,33.9981423
428,251380.0,Edgemine Inc,2022-11-23,E,ELEC,['J1772'],AMPUP,Private,Contact station for hours of availability,1801 E 50th St,Los Angeles,90058.0,CA,-118.2418808,33.9984159
429,39919.0,Antelope Valley Nissan,2011-03-15,E,ELEC,"['CHADEMO', 'J1772']",Non-Networked,Public - Call ahead,24 hours daily; primarily for customer use,451 Auto Center Dr,Palmdale,93551.0,CA,-118.138184,34.591173
430,48158.0,Antelope Valley Nissan,2011-03-15,E,ELEC,['J1772'],Non-Networked,Private,Service center use only,451 Auto Center Dr,Palmdale,93551.0,CA,-118.138184,34.591173
431,113217.0,Element  Palmdale - Tesla Destination,2017-10-26,E,ELEC,['TESLA'],Tesla Destination,Public,,39325 Trade Center Dr,Palmdale,93551.0,CA,-118.143177,34.597428
432,113218.0,Transplants Brewing Company - Tesla Destination,2018-10-22,E,ELEC,['TESLA'],Tesla Destination,Public,,40242 La Quinta Ln  Suite 101,Palmdale,93551.0,CA,-118.139606,34.614361
433,159304.0,ROBERTSONHONDA DCFAST01,2020-06-12,T,ELEC,"['CHADEMO', 'J1772COMBO']",ChargePoint Network,TEMPORARILY UNAVAILABLE (Public),24 hours daily,455 Auto Vista Dr,Palmdale,93551.0,CA,-118.13773,34.593733
434,167312.0,Camacho Mitsubishi,2020-09-28,T,ELEC,['J1772'],Non-Networked,TEMPORARILY UNAVAILABLE (Public),Dealership business hours,401 Auto Vista Dr,Palmdale,93551.0,CA,-118.136718,34.593507
435,167781.0,Antelope Valley Mall - Tesla Supercharger,2020-10-19,E,ELEC,['TESLA'],Tesla,Public,24 hours daily; for Tesla use only,1233 Rancho Vista Boulevard,Palmdale,93551.0,CA,-118.150932,34.606457
436,190520.0,"Kohl's Palmdale, CA",2021-05-23,E,ELEC,['J1772'],Volta,Public,Mon 7:00am - 9:00pm; Tue 7:00am - 9:00pm; Wed 7:00am - 9:00pm; Thu 7:00am - 9:00pm; Fri 7:00am - 9:00pm; Sat 7:00am - 9:00pm; Sun 7:00am - 9:00pm,39850 Tenth Street W,Palmdale,93551.0,CA,-118.1450095,34.606844
437,200683.0,DC CORRIDOR TARGETPDALE DC2,2021-11-06,E,ELEC,"['CHADEMO', 'J1772COMBO']",ChargePoint Network,Public,24 hours daily,39440 10th Street West,Palmdale,93551.0,CA,-118.147414,34.599092
438,200751.0,DC CORRIDOR TARGETPDALE DC1,2021-11-09,E,ELEC,"['CHADEMO', 'J1772COMBO']",ChargePoint Network,Public,24 hours daily,39440 10th Street West,Palmdale,93551.0,CA,-118.147414,34.59907
439,204397.0,DC CORRIDOR TARGETPDALE L2,2022-01-07,E,ELEC,['J1772'],ChargePoint Network,Public,24 hours daily,39440 10th Street West,Palmdale,93551.0,CA,-118.14742,34.599057
440,212222.0,AVUHSD HIGHLAND HS #2,2022-03-23,E,ELEC,['J1772'],ChargePoint Network,Public,24 hours daily,39055 25th St W,Palmdale,93551.0,CA,-118.175604,34.593201
441,212223.0,AVUHSD HIGHLAND HS #1,2022-03-23,E,ELEC,['J1772'],ChargePoint Network,Public,24 hours daily,39055 25th St W,Palmdale,93551.0,CA,-118.175613,34.593247
442,214285.0,Antelope Valley Mall - North Parking,2022-04-19,E,ELEC,['J1772'],Blink Network,Public,,1247 W Avenue P,Palmdale,93551.0,CA,-118.151567,34.605389
443,223570.0,Sierra Commons Place,2022-07-16,T,ELEC,['J1772'],Blink Network,TEMPORARILY UNAVAILABLE (Public),,39605 10th St West,Palmdale,93551.0,CA,-118.147278,34.602607
444,227456.0,Antelope Valley Mall - South Parking,2022-09-11,E,ELEC,['J1772'],Blink Network,Public,,1301 Rancho Vista Boulevard,Palmdale,93551.0,CA,-118.153064,34.603272
445,253768.0,BevMo! - Tesla Supercharger,2023-02-07,E,ELEC,['TESLA'],Tesla,Public - Credit card at all times,24 hours daily,39626 10th St W,Palmdale,93551.0,CA,-118.146111,34.602239
446,63471.0,Will Rogers State Historic Park,2015-12-31,E,ELEC,['J1772'],Non-Networked,Public,Park business hours,1501 Will Rogers State Park Rd,Los Angeles,90272.0,CA,-118.512636,34.054983
447,104642.0,The Getty Villa - South Parking,2015-02-01,E,ELEC,"['J1772', 'NEMA520']",Non-Networked,Public,10am-5pm W-M; Drivers must bring their own J1772 cordset for Level 1 charging; paid lot,17985 Pacific Coast Hwy,Pacific Palisades,90272.0,CA,-118.5648429100341,34.04590171153875
448,104643.0,The Getty Villa - Central Parking,2015-02-01,E,ELEC,['J1772'],Non-Networked,Public,10am-5pm W-M,17985 Pacific Coast Hwy,Pacific Palisades,90272.0,CA,-118.5648536388702,34.04584837272859
449,148800.0,The Riviera Tennis Club,2012-02-09,T,ELEC,['J1772'],SemaCharge Network,TEMPORARILY UNAVAILABLE (Public),,1250 Capri Drive,Pacific Palisades,90272.0,CA,-118.501337,34.049794
450,158517.0,16602 Marquez Ave,2020-06-04,E,ELEC,['J1772'],SHELL_RECHARGE,Public,24 hours daily,16602 Marquez Ave,Pacific Palisades,90272.0,CA,-118.543866,34.048073
451,159341.0,PV PV VALET 1,2020-06-12,T,ELEC,['J1772'],ChargePoint Network,TEMPORARILY UNAVAILABLE (Public),24 hours daily,15225 Palisades Village Lane,Los Angeles,90272.0,CA,-118.524902,34.048042
452,159342.0,PV PV 4,2020-06-12,E,ELEC,['J1772'],ChargePoint Network,Public,24 hours daily,15255 Palisades Village Lane,Los Angeles,90272.0,CA,-118.524691,34.047498
453,163334.0,888 N Swarthmore Ave,2020-06-13,E,ELEC,['J1772'],SHELL_RECHARGE,Public,24 hours daily,888 N Swarthmore Ave,Pacific Palisades,90272.0,CA,-118.525902,34.046745
454,177078.0,PV PV VALET 3,2021-01-27,T,ELEC,['J1772'],ChargePoint Network,TEMPORARILY UNAVAILABLE (Public),24 hours daily,15225 Palisades Village Lane,Los Angeles,90272.0,CA,-118.524685,34.048073
455,177079.0,PV PV 1,2021-01-27,E,ELEC,['J1772'],ChargePoint Network,Public,24 hours daily,15225 Palisades Village Lane,Los Angeles,90272.0,CA,-118.525052,34.047692
456,177080.0,PV PV 6,2021-01-27,T,ELEC,['J1772'],ChargePoint Network,TEMPORARILY UNAVAILABLE (Public),24 hours daily,15225 Palisades Village Lane,Los Angeles,90272.0,CA,-118.524647,34.04763
457,177081.0,PV PV 7,2021-01-27,E,ELEC,['J1772'],ChargePoint Network,Public,24 hours daily,15225 Palisades Village Lane,Los Angeles,90272.0,CA,-118.524717,34.047673
458,177082.0,PV PV 3,2021-01-27,E,ELEC,['J1772'],ChargePoint Network,Public,24 hours daily,15225 Palisades Village Lane,Los Angeles,90272.0,CA,-118.52474,34.047539
459,177083.0,PV PV 2,2021-01-27,E,ELEC,['J1772'],ChargePoint Network,Public,24 hours daily,15225 Palisades Village Lane,Los Angeles,90272.0,CA,-118.524614,34.047438
460,177084.0,PV PV 8,2021-01-27,E,ELEC,['J1772'],ChargePoint Network,Public,24 hours daily,15225 Palisades Village Lane,Los Angeles,90272.0,CA,-118.524749,34.047772
461,177085.0,PV GW STATION 1,2021-01-27,T,ELEC,['J1772'],ChargePoint Network,TEMPORARILY UNAVAILABLE (Public),24 hours daily,15225 Palisades Village Lane,Los Angeles,90272.0,CA,-118.524555,34.047908
462,214075.0,Palisades Village - Tesla Supercharger,2022-04-03,E,ELEC,['TESLA'],Tesla,Public,24 hours daily; for Tesla use only,1038 N Swarthmore Avenue,Pacific Palisades,90272.0,CA,-118.52493,34.04743
463,223058.0,15415 W Antioch St,2022-07-09,E,ELEC,['J1772'],FLO,Public,24 hours daily,15415 W Antioch St,Los Angeles,90272.0,CA,-118.5278909,34.0473296
464,260215.0,PV PV VALET 2,2023-05-03,E,ELEC,['J1772'],ChargePoint Network,Public,24 hours daily,15225 Palisades Village Lane,Los Angeles,90272.0,CA,-118.524786,34.048056
465,51926.0,City of Manhattan Beach - City Hall Garage,2013-03-27,E,ELEC,['J1772'],Non-Networked,Public,3pm-12am daily; 2 hour parking limit,1400 Highland Ave,Manhattan Beach,90266.0,CA,-118.409726,33.886925
466,113116.0,"westdrift Manhattan Beach, Autograph Collection - Tesla Destination",2015-06-12,E,ELEC,"['J1772', 'TESLA']",Tesla Destination,Public,,1400 Parkview Ave,Manhattan Beach,90266.0,CA,-118.388495,33.90027
467,116781.0,Manhattan Village - Tesla Supercharger,2018-12-01,E,ELEC,['TESLA'],Tesla,Public,24 hours daily; for Tesla use only,3200 North Sepulveda Boulevard,Manhattan Beach,90266.0,CA,-118.3938,33.9013
468,121648.0,City of Manhattan Beach - City Hall Garage,2019-02-01,E,ELEC,['J1772'],Non-Networked,Private,For city vehicle use only,1400 Highland Ave,Manhattan Beach,90266.0,CA,-118.409726,33.886925
469,127956.0,Whole Foods Market,2019-06-01,E,ELEC,['J1772'],Non-Networked,Public - Credit card at all times,24 hours daily,23401 Civic Center Way,Malibu,90266.0,CA,-118.686057,34.037359
470,152833.0,Gelsons Manhattan Beach,2020-01-20,E,ELEC,['J1772'],Volta,Public,Mon 5:00am - 10:59pm; Tue 5:00am - 10:59pm; Wed 5:00am - 10:59pm; Thu 5:00am - 10:59pm; Fri 5:00am - 10:59pm; Sat 5:00am - 10:59pm; Sun 5:00am - 10:59pm,N Sepulveda Blvd & 8Th St,Manhattan Beach,90266.0,CA,-118.396358703,33.883314593
471,154353.0,MVSC NE-4,2020-03-07,E,ELEC,['J1772'],ChargePoint Network,Public,24 hours daily,1180 Rosecrans Ave,Manhattan Beach,90266.0,CA,-118.394019,33.901637
472,154354.0,MVSC M-1,2020-03-07,E,ELEC,['J1772'],ChargePoint Network,Public,24 hours daily,2612 N Sepulveda Blvd,Manhattan Beach,90266.0,CA,-118.394282,33.894845
473,154527.0,MVSC S-1,2020-03-18,E,ELEC,['J1772'],ChargePoint Network,Public,24 hours daily,3160 N Sepulveda Blvd,Manhattan Beach,90266.0,CA,-118.395001,33.897984
474,155506.0,City of Manhattan Beach - Upper South Pier Parking Lot,2020-04-14,E,ELEC,['J1772'],Non-Networked,Public,24 hours daily; five hour parking limit,1121 Ocean Dr,Manhattan Beach,90266.0,CA,-118.411118,33.883937
475,155507.0,City of Manhattan Beach - Upper North Pier Parking Lot,2020-04-14,E,ELEC,['J1772'],Non-Networked,Public,24 hours daily; five hour parking limit,1123 Ocean Dr,Manhattan Beach,90266.0,CA,-118.411547,33.88472
476,155508.0,City of Manhattan Beach - Parking Lot 2,2020-04-14,E,ELEC,['J1772'],Non-Networked,Public,24 hours daily; two hour parking limit,220 12th St,Manhattan Beach,90266.0,CA,-118.410509,33.885359
477,155509.0,City of Manhattan Beach - Parking Lot 3,2020-04-14,E,ELEC,['J1772'],Non-Networked,Public,24 hours daily; two hour parking limit,310-398 12th St,Manhattan Beach,90266.0,CA,-118.409563,33.885928
478,155510.0,City of Manhattan Beach - Metlox,2020-04-14,E,ELEC,['J1772'],Non-Networked,Public,24 hours daily; two hour parking limit,1210 N Morningside Dr,Manhattan Beach,90266.0,CA,-118.409123,33.886418
479,155511.0,City of Manhattan Beach - Joslyn Center,2020-04-14,E,ELEC,['J1772'],Non-Networked,Public,24 hours daily; two hour parking limit,1601 N Valley Dr,Manhattan Beach,90266.0,CA,-118.410028,33.888713
480,155512.0,City of Manhattan Beach - Live Oak Park,2020-04-14,E,ELEC,['J1772'],Non-Networked,Public,24 hours daily; two hour parking limit,1655 N Valley Dr,Manhattan Beach,90266.0,CA,-118.409733,33.889226
481,155513.0,City of Manhattan Beach - Parking Lot 4,2020-04-14,E,ELEC,['J1772'],Non-Networked,Public,24 hours daily; two hour parking limit,3738 Highland Ave,Manhattan Beach,90266.0,CA,-118.417927,33.901511
482,155514.0,City of Manhattan Beach - Manhattan Beach Art Center,2020-04-14,E,ELEC,['J1772'],Non-Networked,Public,24 hours daily; two hour parking limit,1560 Manhattan Beach Blvd,Manhattan Beach,90266.0,CA,-118.385664,33.88695
483,159084.0,MBT STATION 5,2020-06-12,E,ELEC,['J1772'],ChargePoint Network,Public,24 hours daily,1230 Rosecrans Ave,Manhattan Beach,90266.0,CA,-118.391717,33.901188
484,160763.0,EVSP WALGREENS STORE 9685,2020-06-12,E,ELEC,['J1772'],ChargePoint Network,Public,24 hours daily,2400 N Sepulveda Blvd,Manhattan Beach,90266.0,CA,-118.395169,33.893995
485,163970.0,MBS Media Campus,2020-06-26,E,ELEC,['J1772'],EV Connect,Public,,1600 Rosecrans Ave,Manhattan Beach,90266.0,CA,-118.384211,33.901567
486,175332.0,MVSC NE-2,2021-01-27,E,ELEC,['J1772'],ChargePoint Network,Public,24 hours daily,1180 Rosecrans Ave,Manhattan Beach,90266.0,CA,-118.39396,33.901568
487,175333.0,MVSC NE-3,2021-01-27,E,ELEC,['J1772'],ChargePoint Network,Public,24 hours daily,1180 Rosecrans Ave,Manhattan Beach,90266.0,CA,-118.393981,33.901568
488,175334.0,MVSC NE-5,2021-01-27,E,ELEC,['J1772'],ChargePoint Network,Public,24 hours daily,1180 Rosecrans Ave,Manhattan Beach,90266.0,CA,-118.39403,33.901603
489,175335.0,MVSC M-3,2021-01-27,E,ELEC,['J1772'],ChargePoint Network,Public,24 hours daily,2612 N Sepulveda Blvd,Manhattan Beach,90266.0,CA,-118.394099,33.894907
490,175336.0,MVSC M-2,2021-01-27,E,ELEC,['J1772'],ChargePoint Network,Public,24 hours daily,2612 N Sepulveda Blvd,Manhattan Beach,90266.0,CA,-118.394121,33.894925
491,175387.0,MVSC S-2,2021-01-27,E,ELEC,['J1772'],ChargePoint Network,Public,24 hours daily,3160 N Sepulveda Blvd,Manhattan Beach,90266.0,CA,-118.394357,33.898755
492,175388.0,MVSC S-4,2021-01-27,E,ELEC,['J1772'],ChargePoint Network,Public,24 hours daily,3160 N Sepulveda Blvd,Manhattan Beach,90266.0,CA,-118.394515,33.898383
493,175389.0,MVSC S-3,2021-01-27,E,ELEC,['J1772'],ChargePoint Network,Public,24 hours daily,3160 N Sepulveda Blvd,Manhattan Beach,90266.0,CA,-118.394329,33.898306
494,176558.0,MBT STATION 4,2021-01-27,E,ELEC,['J1772'],ChargePoint Network,Public,24 hours daily,1230 Rosecrans Ave,Manhattan Beach,90266.0,CA,-118.391752,33.901189
495,176559.0,MBT STATION 2,2021-01-27,E,ELEC,['J1772'],ChargePoint Network,Public,24 hours daily,1230 Rosecrans Ave,Manhattan Beach,90266.0,CA,-118.392154,33.901415
496,176560.0,MBT STATION 3,2021-01-27,E,ELEC,['J1772'],ChargePoint Network,Public,24 hours daily,1230 Rosecrans Ave,Manhattan Beach,90266.0,CA,-118.392345,33.901534
497,176561.0,MBT STATION 1,2021-01-27,E,ELEC,['J1772'],ChargePoint Network,Public,24 hours daily,1230 Rosecrans Ave,Manhattan Beach,90266.0,CA,-118.392059,33.901415
498,186060.0,Manhattan Village,2020-12-03,T,ELEC,['J1772'],SemaCharge Network,TEMPORARILY UNAVAILABLE (Public),,3200 North Sepulveda Boulevard,Manhattan Beach,90266.0,CA,-118.394016,33.899543
499,220452.0,Chevron # 99778,2019-08-09,E,ELEC,"['CHADEMO', 'J1772COMBO']",eVgo Network,Public,24 hours daily,2301 N Aviation Blvd,Manhattan Beach,90266.0,CA,-118.379134,33.894972
500,228289.0,BevMo!,2019-10-03,E,ELEC,"['CHADEMO', 'J1772', 'J1772COMBO']",eVgo Network,Public,24 hours daily,1700 Rosecrans Ave,Manhattan Beach,90266.0,CA,-118.38249,33.90145
501,238318.0,MVSC S-5,2022-12-19,E,ELEC,['J1772'],ChargePoint Network,Public,24 hours daily,3160 N Sepulveda Blvd,Manhattan Beach,90266.0,CA,-118.394318,33.898824
502,253915.0,Manhattan Village at Sushi Bao,2023-02-13,E,ELEC,"['CHADEMO', 'J1772COMBO']",eVgo Network,Public,24 hours daily,3110 N Sepulveda Blvd,Manhattan Beach,90266.0,CA,-118.3955,33.89843
503,6509.0,Bristol Farms,1997-08-31,E,ELEC,,Non-Networked,Public,24 hours daily,606 Fair Oaks Ave,South Pasadena,91030.0,CA,-118.149597,34.118433
504,228089.0,820 Mound Ave,2019-08-27,T,ELEC,"['CHADEMO', 'J1772COMBO']",eVgo Network,TEMPORARILY UNAVAILABLE (Public),24 hours daily,"820 Mound Ave, 820 Mound Ave",South Pasadena,91030.0,CA,-118.151598,34.116707
505,39959.0,West Covina Nissan,2011-03-15,E,ELEC,"['CHADEMO', 'J1772']",Non-Networked,Public - Call ahead,Dealership business hours,205 N Citrus St,West Covina,91791.0,CA,-117.890899,34.074227
506,48071.0,West Covina Nissan,2011-03-15,E,ELEC,['J1772'],Non-Networked,Private,,205 N Citrus St,West Covina,91791.0,CA,-117.890899,34.074227
507,187712.0,Eastland Center,2021-04-12,E,ELEC,['J1772'],Volta,Public,Mon 5:00am - 10:59pm; Tue 5:00am - 10:59pm; Wed 5:00am - 10:59pm; Thu 5:00am - 10:59pm; Fri 5:00am - 10:59pm; Sat 5:00am - 10:59pm; Sun 5:00am - 10:59pm,2753 E Eastland Center Dr,West Covina,91791.0,CA,-117.88583325,34.07399675
508,237626.0,The McIntyre Square - Tesla Supercharger,2022-10-31,E,ELEC,['TESLA'],Tesla,Public,24 hours daily,220 S Citrus St,West Covina,91791.0,CA,-117.889053,34.070663
509,159122.0,CROSSROADS ATRIUM #9,2020-06-12,E,ELEC,['J1772'],ChargePoint Network,Public,24 hours daily,13181 Crossroads Parkway N,City of Industry,91746.0,CA,-118.016112,34.030665
510,159160.0,CROSSROADS 12851 #8,2020-06-12,E,ELEC,['J1772'],ChargePoint Network,Public,24 hours daily,12851 Crossroads Pkwy S,City of Industry,91746.0,CA,-118.021489,34.029812
511,159177.0,CROSSROADS 12801 #1,2020-06-12,E,ELEC,['J1772'],ChargePoint Network,Public,24 hours daily,12801 Crossroads Pkwy S,City of Industry,91746.0,CA,-118.025272,34.0294
512,176629.0,CROSSROADS ATRIUM #5,2021-01-27,E,ELEC,['J1772'],ChargePoint Network,Public,24 hours daily,13181 Crossroads Parkway N,City of Industry,91746.0,CA,-118.01603,34.030404
513,176630.0,CROSSROADS ATRIUM #12,2021-01-27,E,ELEC,['J1772'],ChargePoint Network,Public,24 hours daily,13181 Crossroads Parkway N,City of Industry,91746.0,CA,-118.016357,34.030631
514,176631.0,CROSSROADS ATRIUM #13,2021-01-27,E,ELEC,['J1772'],ChargePoint Network,Public,24 hours daily,13181 Crossroads Parkway N,City of Industry,91746.0,CA,-118.016415,34.030626
515,176632.0,CROSSROADS ATRIUM #15,2021-01-27,E,ELEC,['J1772'],ChargePoint Network,Public,24 hours daily,13181 Crossroads Parkway N,City of Industry,91746.0,CA,-118.016499,34.030611
516,176633.0,CROSSROADS ATRIUM #16,2021-01-27,E,ELEC,['J1772'],ChargePoint Network,Public,24 hours daily,13181 Crossroads Parkway N,City of Industry,91746.0,CA,-118.016561,34.030608
517,176634.0,CROSSROADS ATRIUM #17,2021-01-27,E,ELEC,['J1772'],ChargePoint Network,Public,24 hours daily,13181 Crossroads Parkway N,City of Industry,91746.0,CA,-118.016619,34.0306
518,176635.0,CROSSROADS ATRIUM #18,2021-01-27,E,ELEC,['J1772'],ChargePoint Network,Public,24 hours daily,13181 Crossroads Parkway N,City of Industry,91746.0,CA,-118.016649,34.030601
519,176636.0,CROSSROADS ATRIUM #14,2021-01-27,E,ELEC,['J1772'],ChargePoint Network,Public,24 hours daily,13181 Crossroads Parkway N,City of Industry,91746.0,CA,-118.016037,34.030395
520,176637.0,CROSSROADS ATRIUM #4,2021-01-27,E,ELEC,['J1772'],ChargePoint Network,Public,24 hours daily,13181 Crossroads Parkway N,City of Industry,91746.0,CA,-118.015974,34.03038
521,176638.0,CROSSROADS ATRIUM #10,2021-01-27,E,ELEC,['J1772'],ChargePoint Network,Public,24 hours daily,13181 Crossroads Parkway N,City of Industry,91746.0,CA,-118.016172,34.030662
522,176639.0,CROSSROADS ATRIUM #8,2021-01-27,E,ELEC,['J1772'],ChargePoint Network,Public,24 hours daily,13181 Crossroads Parkway N,City of Industry,91746.0,CA,-118.016053,34.030671
523,176640.0,CROSSROADS ATRIUM #3,2021-01-27,E,ELEC,['J1772'],ChargePoint Network,Public,24 hours daily,13181 Crossroads Parkway N,City of Industry,91746.0,CA,-118.01594,34.030369
524,176641.0,CROSSROADS ATRIUM #6,2021-01-27,E,ELEC,['J1772'],ChargePoint Network,Public,24 hours daily,13181 Crossroads Parkway N,City of Industry,91746.0,CA,-118.015998,34.030694
525,176642.0,CROSSROADS ATRIUM #11,2021-01-27,E,ELEC,['J1772'],ChargePoint Network,Public,24 hours daily,13181 Crossroads Parkway N,City of Industry,91746.0,CA,-118.016223,34.030651
526,176643.0,CROSSROADS ATRIUM #7,2021-01-27,E,ELEC,['J1772'],ChargePoint Network,Public,24 hours daily,13181 Crossroads Parkway N,City of Industry,91746.0,CA,-118.016025,34.03068
527,176704.0,CROSSROADS 12851 #7,2021-01-27,E,ELEC,['J1772'],ChargePoint Network,Public,24 hours daily,12851 Crossroads Pkwy S,City of Industry,91746.0,CA,-118.021469,34.029775
528,176705.0,CROSSROADS 12851 #6,2021-01-27,E,ELEC,['J1772'],ChargePoint Network,Public,24 hours daily,12851 Crossroads Pkwy S,City of Industry,91746.0,CA,-118.021464,34.029722
529,176706.0,CROSSROADS 12851 #5,2021-01-27,E,ELEC,['J1772'],ChargePoint Network,Public,24 hours daily,12851 Crossroads Pkwy S,City of Industry,91746.0,CA,-118.021453,34.02965
530,176707.0,CROSSROADS 12851 #4,2021-01-27,E,ELEC,['J1772'],ChargePoint Network,Public,24 hours daily,12851 Crossroads Pkwy S,City of Industry,91746.0,CA,-118.021451,34.029592
531,176708.0,CROSSROADS 12851 #3,2021-01-27,E,ELEC,['J1772'],ChargePoint Network,Public,24 hours daily,12851 Crossroads Pkwy S,City of Industry,91746.0,CA,-118.021446,34.029575
532,176709.0,CROSSROADS 12851 #10,2021-01-27,E,ELEC,['J1772'],ChargePoint Network,Public,24 hours daily,12851 Crossroads Pkwy S,City of Industry,91746.0,CA,-118.021523,34.029428
533,176710.0,CROSSROADS 12851 #2,2021-01-27,E,ELEC,['J1772'],ChargePoint Network,Public,24 hours daily,12851 Crossroads Pkwy S,City of Industry,91746.0,CA,-118.021522,34.029441
534,176711.0,CROSSROADS 12851 #1,2021-01-27,E,ELEC,['J1772'],ChargePoint Network,Public,24 hours daily,12851 Crossroads Pkwy S,City of Industry,91746.0,CA,-118.021448,34.029531
535,176712.0,CROSSROADS 12851 #9,2021-01-27,E,ELEC,['J1772'],ChargePoint Network,Public,24 hours daily,12851 Crossroads Pkwy S,City of Industry,91746.0,CA,-118.02149,34.029856
536,176735.0,CROSSROADS 12801 #5,2021-01-27,E,ELEC,['J1772'],ChargePoint Network,Public,24 hours daily,12801 Crossroads Pkwy S,City of Industry,91746.0,CA,-118.025269,34.029347
537,176736.0,CROSSROADS 12801 #6,2021-01-27,E,ELEC,['J1772'],ChargePoint Network,Public,24 hours daily,12801 Crossroads Pkwy S,City of Industry,91746.0,CA,-118.025269,34.029294
538,176737.0,CROSSROADS 12801 #2,2021-01-27,E,ELEC,['J1772'],ChargePoint Network,Public,24 hours daily,12801 Crossroads Pkwy S,City of Industry,91746.0,CA,-118.025273,34.029317
539,176738.0,CROSSROADS 12801 #7,2021-01-27,E,ELEC,['J1772'],ChargePoint Network,Public,24 hours daily,12801 Crossroads Pkwy S,City of Industry,91746.0,CA,-118.025256,34.029212
540,176739.0,CROSSROADS 12801 #8,2021-01-27,E,ELEC,['J1772'],ChargePoint Network,Public,24 hours daily,12801 Crossroads Pkwy S,City of Industry,91746.0,CA,-118.025262,34.029247
541,176740.0,CROSSROADS 12801 #9,2021-01-27,E,ELEC,['J1772'],ChargePoint Network,Public,24 hours daily,12801 Crossroads Pkwy S,City of Industry,91746.0,CA,-118.025251,34.029181
542,176741.0,CROSSROADS 12801 #3,2021-01-27,E,ELEC,['J1772'],ChargePoint Network,Public,24 hours daily,12801 Crossroads Pkwy S,City of Industry,91746.0,CA,-118.025244,34.029143
